[
	{ "name": "N ABERDEEN ST & N OGDEN AVE", "longitude": -87.65528, "latitude": 41.8955 },
	{ "name": "N ABERDEEN ST & W ANCONA ST", "longitude": -87.65413, "latitude": 41.89408 },
	{ "name": "N ABERDEEN ST & W CARROLL AVE", "longitude": -87.65453, "latitude": 41.88773 },
	{ "name": "N ABERDEEN ST & W FULTON MARKET", "longitude": -87.6545, "latitude": 41.8867 },
	{ "name": "N ABERDEEN ST & W GRAND AVE", "longitude": -87.65463, "latitude": 41.89111 },
	{ "name": "N ABERDEEN ST & W HUBBARD ST", "longitude": -87.6546, "latitude": 41.89002 },
	{ "name": "N ABERDEEN ST & W HURON ST", "longitude": -87.65419, "latitude": 41.89439 },
	{ "name": "N ABERDEEN ST & W KINZIE ST", "longitude": -87.65457, "latitude": 41.88898 },
	{ "name": "N ABERDEEN ST & W LAKE ST", "longitude": -87.65447, "latitude": 41.88554 },
	{ "name": "N ABERDEEN ST & W MADISON ST", "longitude": -87.65436, "latitude": 41.88167 },
	{ "name": "N ABERDEEN ST & W RANDOLPH ST", "longitude": -87.65443, "latitude": 41.88417 },
	{
		"name": "N ABERDEEN ST & W WASHINGTON BLVD",
		"longitude": -87.6544,
		"latitude": 41.88302
	},
	{ "name": "N ACADEMY PL & W MADISON ST", "longitude": -87.64795, "latitude": 41.88177 },
	{
		"name": "N ACADEMY PL & W WASHINGTON BLVD",
		"longitude": -87.64798,
		"latitude": 41.88314
	},
	{ "name": "N ADA ST & W ARBOUR PL", "longitude": -87.66101, "latitude": 41.88838 },
	{ "name": "N ADA ST & W BLACKHAWK ST", "longitude": -87.66218, "latitude": 41.90706 },
	{ "name": "N ADA ST & W CARROLL AVE", "longitude": -87.66082, "latitude": 41.88747 },
	{ "name": "N ADA ST & W CHICAGO AVE", "longitude": -87.6614, "latitude": 41.89617 },
	{ "name": "N ADA ST & W CONCORD PL", "longitude": -87.66173, "latitude": 41.9122 },
	{ "name": "N ADA ST & W CRYSTAL ST", "longitude": -87.66168, "latitude": 41.90446 },
	{ "name": "N ADA ST & W ERIE ST", "longitude": -87.66084, "latitude": 41.89344 },
	{ "name": "N ADA ST & W EVERGREEN AVE", "longitude": -87.66161, "latitude": 41.90622 },
	{ "name": "N ADA ST & W FULTON ST", "longitude": -87.6608, "latitude": 41.88662 },
	{ "name": "N ADA ST & W GRAND AVE", "longitude": -87.66078, "latitude": 41.89104 },
	{ "name": "N ADA ST & W HUBBARD ST", "longitude": -87.66088, "latitude": 41.88995 },
	{ "name": "N ADA ST & W HURON ST", "longitude": -87.66136, "latitude": 41.89434 },
	{ "name": "N ADA ST & W KINZIE ST", "longitude": -87.66068, "latitude": 41.88886 },
	{ "name": "N ADA ST & W LAKE ST", "longitude": -87.66077, "latitude": 41.88544 },
	{ "name": "N ADA ST & W MADISON ST", "longitude": -87.66056, "latitude": 41.88156 },
	{ "name": "N ADA ST & W NORTH AVE", "longitude": -87.66116, "latitude": 41.91072 },
	{ "name": "N ADA ST & W OHIO ST", "longitude": -87.66082, "latitude": 41.89251 },
	{ "name": "N ADA ST & W RANDOLPH ST", "longitude": -87.66066, "latitude": 41.88408 },
	{ "name": "N ADA ST & W WABANSIA AVE", "longitude": -87.66272, "latitude": 41.91354 },
	{ "name": "N ADA ST & W WASHINGTON BLVD", "longitude": -87.6606, "latitude": 41.88292 },
	{ "name": "N ALBANY AVE & N ELSTON AVE", "longitude": -87.70531, "latitude": 41.9442 },
	{ "name": "N ALBANY AVE & W ADDISON ST", "longitude": -87.70537, "latitude": 41.94665 },
	{ "name": "N ALBANY AVE & W AINSLIE ST", "longitude": -87.70608, "latitude": 41.97029 },
	{ "name": "N ALBANY AVE & W ALBION AVE", "longitude": -87.70706, "latitude": 42.00105 },
	{ "name": "N ALBANY AVE & W ALTGELD ST", "longitude": -87.70697, "latitude": 41.92624 },
	{ "name": "N ALBANY AVE & W ARGYLE ST", "longitude": -87.70614, "latitude": 41.97211 },
	{ "name": "N ALBANY AVE & W ARMITAGE AVE", "longitude": -87.70521, "latitude": 41.91742 },
	{ "name": "N ALBANY AVE & W ARTHUR AVE", "longitude": -87.70702, "latitude": 41.99925 },
	{ "name": "N ALBANY AVE & W BELDEN AVE", "longitude": -87.70459, "latitude": 41.92325 },
	{
		"name": "N ALBANY AVE & W BELLE PLAINE AVE",
		"longitude": -87.70563,
		"latitude": 41.95575
	},
	{ "name": "N ALBANY AVE & W BELMONT AVE", "longitude": -87.70518, "latitude": 41.93935 },
	{ "name": "N ALBANY AVE & W BERTEAU AVE", "longitude": -87.70569, "latitude": 41.95757 },
	{ "name": "N ALBANY AVE & W BIRCHWOOD AVE", "longitude": -87.7067, "latitude": 42.01736 },
	{
		"name": "N ALBANY AVE & W BLOOMINGDALE AVE",
		"longitude": -87.70517,
		"latitude": 41.91373
	},
	{ "name": "N ALBANY AVE & W BYRON ST", "longitude": -87.70552, "latitude": 41.95213 },
	{ "name": "N ALBANY AVE & W CARMEN AVE", "longitude": -87.70619, "latitude": 41.97394 },
	{ "name": "N ALBANY AVE & W CARROLL AVE", "longitude": -87.70386, "latitude": 41.88755 },
	{ "name": "N ALBANY AVE & W CHASE AVE", "longitude": -87.70678, "latitude": 42.01373 },
	{ "name": "N ALBANY AVE & W CHICAGO AVE", "longitude": -87.70413, "latitude": 41.89558 },
	{ "name": "N ALBANY AVE & W CORNELIA AVE", "longitude": -87.70532, "latitude": 41.94476 },
	{ "name": "N ALBANY AVE & W CORTLAND ST", "longitude": -87.70522, "latitude": 41.91559 },
	{ "name": "N ALBANY AVE & W CULLOM AVE", "longitude": -87.70574, "latitude": 41.95938 },
	{ "name": "N ALBANY AVE & W DEVON AVE", "longitude": -87.70694, "latitude": 41.99743 },
	{ "name": "N ALBANY AVE & W DICKENS AVE", "longitude": -87.70527, "latitude": 41.91925 },
	{ "name": "N ALBANY AVE & W DIVERSEY AVE", "longitude": -87.70498, "latitude": 41.93204 },
	{ "name": "N ALBANY AVE & W EASTWOOD AVE", "longitude": -87.70594, "latitude": 41.9656 },
	{ "name": "N ALBANY AVE & W EDDY ST", "longitude": -87.70534, "latitude": 41.94577 },
	{ "name": "N ALBANY AVE & W FARGO AVE", "longitude": -87.70672, "latitude": 42.01645 },
	{ "name": "N ALBANY AVE & W FLETCHER ST", "longitude": -87.70475, "latitude": 41.93848 },
	{ "name": "N ALBANY AVE & W FOSTER AVE", "longitude": -87.70623, "latitude": 41.97577 },
	{ "name": "N ALBANY AVE & W FRANKLIN BLVD", "longitude": -87.70393, "latitude": 41.8901 },
	{
		"name": "N ALBANY AVE & W FULLERTON AVE",
		"longitude": -87.70464,
		"latitude": 41.92474
	},
	{ "name": "N ALBANY AVE & W FULTON BLVD", "longitude": -87.70382, "latitude": 41.88645 },
	{ "name": "N ALBANY AVE & W GEORGE ST", "longitude": -87.70503, "latitude": 41.93387 },
	{ "name": "N ALBANY AVE & W GRACE ST", "longitude": -87.70547, "latitude": 41.95029 },
	{ "name": "N ALBANY AVE & W GRAND AVE", "longitude": -87.70413, "latitude": 41.89731 },
	{ "name": "N ALBANY AVE & W GRANVILLE AVE", "longitude": -87.7068, "latitude": 41.99387 },
	{ "name": "N ALBANY AVE & W GUNNISON ST", "longitude": -87.70606, "latitude": 41.96938 },
	{ "name": "N ALBANY AVE & W HOMER ST", "longitude": -87.70525, "latitude": 41.91652 },
	{ "name": "N ALBANY AVE & W HOOD AVE", "longitude": -87.70677, "latitude": 41.99301 },
	{ "name": "N ALBANY AVE & W HOWARD ST", "longitude": -87.70666, "latitude": 42.01919 },
	{ "name": "N ALBANY AVE & W HURON ST", "longitude": -87.70404, "latitude": 41.89375 },
	{
		"name": "N ALBANY AVE & W IRVING PARK RD",
		"longitude": -87.70557,
		"latitude": 41.95394
	},
	{ "name": "N ALBANY AVE & W JARLATH ST", "longitude": -87.7068, "latitude": 42.01282 },
	{ "name": "N ALBANY AVE & W JARVIS AVE", "longitude": -87.70674, "latitude": 42.01554 },
	{ "name": "N ALBANY AVE & W JEROME ST", "longitude": -87.70668, "latitude": 42.01827 },
	{ "name": "N ALBANY AVE & W LAKE ST", "longitude": -87.70375, "latitude": 41.88421 },
	{ "name": "N ALBANY AVE & W LAWRENCE AVE", "longitude": -87.70603, "latitude": 41.96848 },
	{ "name": "N ALBANY AVE & W LELAND AVE", "longitude": -87.70597, "latitude": 41.96665 },
	{ "name": "N ALBANY AVE & W LOGAN BLVD", "longitude": -87.70488, "latitude": 41.9284 },
	{ "name": "N ALBANY AVE & W MADISON ST", "longitude": -87.70366, "latitude": 41.881 },
	{ "name": "N ALBANY AVE & W MAYPOLE AVE", "longitude": -87.70374, "latitude": 41.88373 },
	{ "name": "N ALBANY AVE & W MEDILL AVE", "longitude": -87.70461, "latitude": 41.92378 },
	{ "name": "N ALBANY AVE & W MOFFAT ST", "longitude": -87.70519, "latitude": 41.91469 },
	{ "name": "N ALBANY AVE & W MONTROSE AVE", "longitude": -87.7058, "latitude": 41.9612 },
	{ "name": "N ALBANY AVE & W NORTH AVE", "longitude": -87.70451, "latitude": 41.91015 },
	{ "name": "N ALBANY AVE & W OHIO ST", "longitude": -87.70398, "latitude": 41.89192 },
	{ "name": "N ALBANY AVE & W PALMER BLVD", "longitude": -87.70532, "latitude": 41.92068 },
	{ "name": "N ALBANY AVE & W PETERSON AVE", "longitude": -87.70668, "latitude": 41.9904 },
	{ "name": "N ALBANY AVE & W RANDOLPH ST", "longitude": -87.70372, "latitude": 41.88329 },
	{ "name": "N ALBANY AVE & W ROSCOE ST", "longitude": -87.70527, "latitude": 41.94275 },
	{ "name": "N ALBANY AVE & W ROSEMONT AVE", "longitude": -87.70686, "latitude": 41.99566 },
	{ "name": "N ALBANY AVE & W SCHOOL ST", "longitude": -87.70522, "latitude": 41.94105 },
	{ "name": "N ALBANY AVE & W SCHUBERT AVE", "longitude": -87.70493, "latitude": 41.93022 },
	{ "name": "N ALBANY AVE & W SHERWIN AVE", "longitude": -87.70676, "latitude": 42.01464 },
	{
		"name": "N ALBANY AVE & W SUNNYSIDE AVE",
		"longitude": -87.70586,
		"latitude": 41.96303
	},
	{ "name": "N ALBANY AVE & W TOUHY AVE", "longitude": -87.70682, "latitude": 42.01191 },
	{ "name": "N ALBANY AVE & W WABANSIA AVE", "longitude": -87.70457, "latitude": 41.91196 },
	{ "name": "N ALBANY AVE & W WALNUT ST", "longitude": -87.70379, "latitude": 41.88543 },
	{ "name": "N ALBANY AVE & W WARREN BLVD", "longitude": -87.70369, "latitude": 41.88192 },
	{
		"name": "N ALBANY AVE & W WASHINGTON BLVD",
		"longitude": -87.70371,
		"latitude": 41.88282
	},
	{ "name": "N ALBANY AVE & W WAVELAND AVE", "longitude": -87.70542, "latitude": 41.94847 },
	{
		"name": "N ALBANY AVE & W WELLINGTON AVE",
		"longitude": -87.70508,
		"latitude": 41.9357
	},
	{ "name": "N ALBANY AVE & W WILSON AVE", "longitude": -87.70591, "latitude": 41.96472 },
	{ "name": "N ALBANY AVE & W WINONA ST", "longitude": -87.70624, "latitude": 41.97455 },
	{
		"name": "N ALBANY DR & W LUIS MUNOZ MARIN DR",
		"longitude": -87.7045,
		"latitude": 41.90962
	},
	{
		"name": "N ALGONQUIN AVE & N CALDWELL AVE",
		"longitude": -87.7676,
		"latitude": 41.99772
	},
	{
		"name": "N ALGONQUIN AVE & N HIAWATHA AVE",
		"longitude": -87.765,
		"latitude": 42.00082
	},
	{ "name": "N ALGONQUIN AVE & N IONIA AVE", "longitude": -87.76372, "latitude": 42.00236 },
	{
		"name": "N ALGONQUIN AVE & N LEHIGH AVE",
		"longitude": -87.76659,
		"latitude": 41.99892
	},
	{
		"name": "N ALGONQUIN AVE & N SAUGANASH AVE",
		"longitude": -87.76327,
		"latitude": 42.00436
	},
	{ "name": "N ALGONQUIN AVE & N SIOUX AVE", "longitude": -87.76437, "latitude": 42.0016 },
	{
		"name": "N ALGONQUIN AVE & N TAHOMA AVE",
		"longitude": -87.76565,
		"latitude": 42.00006
	},
	{ "name": "N ALGONQUIN AVE & W LUNT AVE", "longitude": -87.76288, "latitude": 42.00782 },
	{ "name": "N ALGONQUIN AVE & W MORSE AVE", "longitude": -87.76284, "latitude": 42.0064 },
	{ "name": "N ALLEN AVE & N MILWAUKEE AVE", "longitude": -87.7153, "latitude": 41.93389 },
	{ "name": "N ALTA VISTA TER & W BYRON ST", "longitude": -87.65654, "latitude": 41.95265 },
	{ "name": "N ALTA VISTA TER & W GRACE ST", "longitude": -87.65649, "latitude": 41.95109 },
	{
		"name": "N ANCHOR DR & W RIVERVIEW PKWY",
		"longitude": -87.69642,
		"latitude": 41.94088
	},
	{ "name": "N ANTHON AVE & W LAWRENCE AVE", "longitude": -87.84069, "latitude": 41.96653 },
	{ "name": "N ANTHON AVE & W LELAND AVE", "longitude": -87.84069, "latitude": 41.9651 },
	{ "name": "N ANTHON AVE & W WILSON AVE", "longitude": -87.8407, "latitude": 41.9637 },
	{ "name": "N ARMOUR ST & W CHICAGO AVE", "longitude": -87.66566, "latitude": 41.8961 },
	{ "name": "N ARMOUR ST & W ERIE ST", "longitude": -87.66558, "latitude": 41.89337 },
	{ "name": "N ARMOUR ST & W FERDINAND ST", "longitude": -87.6655, "latitude": 41.89045 },
	{ "name": "N ARMOUR ST & W GRAND AVE", "longitude": -87.66552, "latitude": 41.891 },
	{ "name": "N ARMOUR ST & W HUBBARD ST", "longitude": -87.66548, "latitude": 41.88991 },
	{ "name": "N ARMOUR ST & W HURON ST", "longitude": -87.66561, "latitude": 41.89428 },
	{ "name": "N ARMOUR ST & W KINZIE ST", "longitude": -87.66545, "latitude": 41.88886 },
	{ "name": "N ARMOUR ST & W OHIO ST", "longitude": -87.66555, "latitude": 41.89245 },
	{ "name": "N ARMOUR ST & W SUPERIOR ST", "longitude": -87.66563, "latitude": 41.89518 },
	{
		"name": "N ARMSTRONG CT & W ARMSTRONG RD",
		"longitude": -87.92445,
		"latitude": 42.00279
	},
	{
		"name": "N ARMSTRONG CT & W OLD HIGGINS RD",
		"longitude": -87.92447,
		"latitude": 42.00428
	},
	{
		"name": "N ARMSTRONG RD & W ARMSTRONG RD",
		"longitude": -87.92223,
		"latitude": 42.00289
	},
	{
		"name": "N ARMSTRONG RD & W OLD HIGGINS RD",
		"longitude": -87.92218,
		"latitude": 42.00395
	},
	{ "name": "N ARTESIAN AVE & W ADDISON ST", "longitude": -87.68947, "latitude": 41.94673 },
	{ "name": "N ARTESIAN AVE & W ALBION AVE", "longitude": -87.6912, "latitude": 42.00135 },
	{ "name": "N ARTESIAN AVE & W ALTGELD ST", "longitude": -87.68893, "latitude": 41.92671 },
	{ "name": "N ARTESIAN AVE & W ARDMORE AVE", "longitude": -87.69077, "latitude": 41.9868 },
	{ "name": "N ARTESIAN AVE & W ARTHUR AVE", "longitude": -87.69115, "latitude": 41.99952 },
	{
		"name": "N ARTESIAN AVE & W BALMORAL AVE",
		"longitude": -87.69054,
		"latitude": 41.97952
	},
	{
		"name": "N ARTESIAN AVE & W BIRCHWOOD AVE",
		"longitude": -87.69137,
		"latitude": 42.01769
	},
	{
		"name": "N ARTESIAN AVE & W BLOOMINGDALE AVE",
		"longitude": -87.68854,
		"latitude": 41.91398
	},
	{
		"name": "N ARTESIAN AVE & W BRYN MAWR AVE",
		"longitude": -87.69066,
		"latitude": 41.98316
	},
	{
		"name": "N ARTESIAN AVE & W CATALPA AVE",
		"longitude": -87.69059,
		"latitude": 41.98137
	},
	{ "name": "N ARTESIAN AVE & W DEVON AVE", "longitude": -87.6911, "latitude": 41.99771 },
	{
		"name": "N ARTESIAN AVE & W DIVERSEY AVE",
		"longitude": -87.68913,
		"latitude": 41.93216
	},
	{ "name": "N ARTESIAN AVE & W DIVISION ST", "longitude": -87.68826, "latitude": 41.903 },
	{ "name": "N ARTESIAN AVE & W FARGO AVE", "longitude": -87.69138, "latitude": 42.01679 },
	{
		"name": "N ARTESIAN AVE & W FULLERTON AVE",
		"longitude": -87.68887,
		"latitude": 41.92489
	},
	{ "name": "N ARTESIAN AVE & W FULTON ST", "longitude": -87.6878, "latitude": 41.88662 },
	{
		"name": "N ARTESIAN AVE & W GLENLAKE AVE",
		"longitude": -87.69094,
		"latitude": 41.99226
	},
	{ "name": "N ARTESIAN AVE & W GRAND AVE", "longitude": -87.68793, "latitude": 41.89085 },
	{
		"name": "N ARTESIAN AVE & W GRANVILLE AVE",
		"longitude": -87.69099,
		"latitude": 41.99408
	},
	{ "name": "N ARTESIAN AVE & W HIRSCH ST", "longitude": -87.68835, "latitude": 41.90666 },
	{
		"name": "N ARTESIAN AVE & W HOLLYWOOD AVE",
		"longitude": -87.69072,
		"latitude": 41.98498
	},
	{ "name": "N ARTESIAN AVE & W HUBBARD ST", "longitude": -87.6879, "latitude": 41.88954 },
	{ "name": "N ARTESIAN AVE & W LAKE ST", "longitude": -87.68776, "latitude": 41.88459 },
	{
		"name": "N ARTESIAN AVE & W LAWRENCE AVE",
		"longitude": -87.69013,
		"latitude": 41.9686
	},
	{ "name": "N ARTESIAN AVE & W LE MOYNE ST", "longitude": -87.6884, "latitude": 41.90848 },
	{ "name": "N ARTESIAN AVE & W LELAND AVE", "longitude": -87.69007, "latitude": 41.96677 },
	{ "name": "N ARTESIAN AVE & W LOGAN BLVD", "longitude": -87.68914, "latitude": 41.92816 },
	{
		"name": "N ARTESIAN AVE & W MONTROSE AVE",
		"longitude": -87.68991,
		"latitude": 41.9613
	},
	{ "name": "N ARTESIAN AVE & W NORTH AVE", "longitude": -87.68844, "latitude": 41.91031 },
	{
		"name": "N ARTESIAN AVE & W NORTH SHORE AVE",
		"longitude": -87.69124,
		"latitude": 42.00317
	},
	{ "name": "N ARTESIAN AVE & W OHIO ST", "longitude": -87.68796, "latitude": 41.8921 },
	{
		"name": "N ARTESIAN AVE & W PETERSON AVE",
		"longitude": -87.69088,
		"latitude": 41.99049
	},
	{
		"name": "N ARTESIAN AVE & W POTOMAC AVE",
		"longitude": -87.68831,
		"latitude": 41.90483
	},
	{ "name": "N ARTESIAN AVE & W PRATT BLVD", "longitude": -87.69128, "latitude": 42.00501 },
	{
		"name": "N ARTESIAN AVE & W ROSEMONT AVE",
		"longitude": -87.69105,
		"latitude": 41.99589
	},
	{
		"name": "N ARTESIAN AVE & W SCHUBERT AVE",
		"longitude": -87.68906,
		"latitude": 41.93034
	},
	{
		"name": "N ARTESIAN AVE & W SUNNYSIDE AVE",
		"longitude": -87.68996,
		"latitude": 41.96313
	},
	{
		"name": "N ARTESIAN AVE & W THORNDALE AVE",
		"longitude": -87.69083,
		"latitude": 41.98862
	},
	{
		"name": "N ARTESIAN AVE & W WABANSIA AVE",
		"longitude": -87.68848,
		"latitude": 41.91212
	},
	{
		"name": "N ARTESIAN AVE & W WAVELAND AVE",
		"longitude": -87.68952,
		"latitude": 41.94853
	},
	{ "name": "N ARTESIAN AVE & W WILSON AVE", "longitude": -87.69001, "latitude": 41.96485 },
	{ "name": "N ASHLAND AVE & N CLARK ST", "longitude": -87.6709, "latitude": 41.99889 },
	{
		"name": "N ASHLAND AVE & N CLYBOURN AVE",
		"longitude": -87.66811,
		"latitude": 41.92428
	},
	{ "name": "N ASHLAND AVE & N ELSTON AVE", "longitude": -87.66809, "latitude": 41.91855 },
	{
		"name": "N ASHLAND AVE & N MILWAUKEE AVE",
		"longitude": -87.66751,
		"latitude": 41.90402
	},
	{ "name": "N ASHLAND AVE & N ROGERS AVE", "longitude": -87.67105, "latitude": 42.01803 },
	{ "name": "N ASHLAND AVE & W ADDISON ST", "longitude": -87.66886, "latitude": 41.94699 },
	{ "name": "N ASHLAND AVE & W AINSLIE ST", "longitude": -87.66952, "latitude": 41.97185 },
	{ "name": "N ASHLAND AVE & W ALBION AVE", "longitude": -87.67049, "latitude": 42.00173 },
	{ "name": "N ASHLAND AVE & W ALTGELD ST", "longitude": -87.66821, "latitude": 41.92696 },
	{ "name": "N ASHLAND AVE & W ARBOUR PL", "longitude": -87.66706, "latitude": 41.88824 },
	{
		"name": "N ASHLAND AVE & W ARMITAGE AVE",
		"longitude": -87.66796,
		"latitude": 41.91793
	},
	{ "name": "N ASHLAND AVE & W ARTHUR AVE", "longitude": -87.67044, "latitude": 41.99993 },
	{
		"name": "N ASHLAND AVE & W AUGUSTA BLVD",
		"longitude": -87.66739,
		"latitude": 41.89971
	},
	{
		"name": "N ASHLAND AVE & W BALMORAL AVE",
		"longitude": -87.66971,
		"latitude": 41.97982
	},
	{ "name": "N ASHLAND AVE & W BARRY AVE", "longitude": -87.6686, "latitude": 41.93786 },
	{ "name": "N ASHLAND AVE & W BEACH AVE", "longitude": -87.66761, "latitude": 41.90761 },
	{
		"name": "N ASHLAND AVE & W BELLE PLAINE AVE",
		"longitude": -87.6691,
		"latitude": 41.95613
	},
	{ "name": "N ASHLAND AVE & W BELMONT AVE", "longitude": -87.66866, "latitude": 41.9397 },
	{ "name": "N ASHLAND AVE & W BERTEAU AVE", "longitude": -87.66915, "latitude": 41.95795 },
	{ "name": "N ASHLAND AVE & W BERWYN AVE", "longitude": -87.66966, "latitude": 41.978 },
	{
		"name": "N ASHLAND AVE & W BIRCHWOOD AVE",
		"longitude": -87.67036,
		"latitude": 42.01813
	},
	{
		"name": "N ASHLAND AVE & W BLACKHAWK ST",
		"longitude": -87.66759,
		"latitude": 41.90701
	},
	{
		"name": "N ASHLAND AVE & W BRYN MAWR AVE",
		"longitude": -87.66982,
		"latitude": 41.98348
	},
	{ "name": "N ASHLAND AVE & W BYRON ST", "longitude": -87.669, "latitude": 41.95247 },
	{ "name": "N ASHLAND AVE & W CARMEN AVE", "longitude": -87.66958, "latitude": 41.97434 },
	{ "name": "N ASHLAND AVE & W CARROLL AVE", "longitude": -87.66704, "latitude": 41.88738 },
	{ "name": "N ASHLAND AVE & W CATALPA AVE", "longitude": -87.66977, "latitude": 41.98165 },
	{ "name": "N ASHLAND AVE & W CHESTNUT ST", "longitude": -87.66734, "latitude": 41.89789 },
	{ "name": "N ASHLAND AVE & W CHICAGO AVE", "longitude": -87.66729, "latitude": 41.89607 },
	{
		"name": "N ASHLAND AVE & W COLUMBIA AVE",
		"longitude": -87.67057,
		"latitude": 42.00443
	},
	{
		"name": "N ASHLAND AVE & W CORNELIA AVE",
		"longitude": -87.66881,
		"latitude": 41.94517
	},
	{ "name": "N ASHLAND AVE & W CORTEZ ST", "longitude": -87.66743, "latitude": 41.90104 },
	{ "name": "N ASHLAND AVE & W CORTLAND ST", "longitude": -87.6678, "latitude": 41.91613 },
	{ "name": "N ASHLAND AVE & W CULLOM AVE", "longitude": -87.6692, "latitude": 41.95977 },
	{ "name": "N ASHLAND AVE & W DEVON AVE", "longitude": -87.67047, "latitude": 41.99808 },
	{
		"name": "N ASHLAND AVE & W DIVERSEY PKWY",
		"longitude": -87.66839,
		"latitude": 41.9324
	},
	{ "name": "N ASHLAND AVE & W DIVISION ST", "longitude": -87.6675, "latitude": 41.90335 },
	{
		"name": "N ASHLAND AVE & W EDGEWATER AVE",
		"longitude": -87.66987,
		"latitude": 41.98594
	},
	{ "name": "N ASHLAND AVE & W ERIE ST", "longitude": -87.66721, "latitude": 41.89334 },
	{ "name": "N ASHLAND AVE & W FARGO AVE", "longitude": -87.67033, "latitude": 42.01706 },
	{
		"name": "N ASHLAND AVE & W FARRAGUT AVE",
		"longitude": -87.66964,
		"latitude": 41.97708
	},
	{
		"name": "N ASHLAND AVE & W FERDINAND ST",
		"longitude": -87.66713,
		"latitude": 41.89056
	},
	{ "name": "N ASHLAND AVE & W FOSTER AVE", "longitude": -87.66961, "latitude": 41.97617 },
	{ "name": "N ASHLAND AVE & W FRY ST", "longitude": -87.66732, "latitude": 41.89692 },
	{
		"name": "N ASHLAND AVE & W FULLERTON AVE",
		"longitude": -87.66815,
		"latitude": 41.92515
	},
	{ "name": "N ASHLAND AVE & W FULTON ST", "longitude": -87.66702, "latitude": 41.88694 },
	{ "name": "N ASHLAND AVE & W GEORGE ST", "longitude": -87.66846, "latitude": 41.93423 },
	{ "name": "N ASHLAND AVE & W GRACE ST", "longitude": -87.66896, "latitude": 41.95064 },
	{ "name": "N ASHLAND AVE & W GRAND AVE", "longitude": -87.66714, "latitude": 41.89098 },
	{ "name": "N ASHLAND AVE & W GREGORY ST", "longitude": -87.66979, "latitude": 41.98256 },
	{ "name": "N ASHLAND AVE & W HADDON AVE", "longitude": -87.66747, "latitude": 41.90228 },
	{
		"name": "N ASHLAND AVE & W HENDERSON ST",
		"longitude": -87.66874,
		"latitude": 41.94242
	},
	{
		"name": "N ASHLAND AVE & W HOLLYWOOD AVE",
		"longitude": -87.66986,
		"latitude": 41.98512
	},
	{ "name": "N ASHLAND AVE & W HOMER ST", "longitude": -87.66776, "latitude": 41.9171 },
	{ "name": "N ASHLAND AVE & W HOWARD ST", "longitude": -87.67133, "latitude": 42.01937 },
	{ "name": "N ASHLAND AVE & W HUBBARD ST", "longitude": -87.66711, "latitude": 41.88989 },
	{ "name": "N ASHLAND AVE & W HURON ST", "longitude": -87.66724, "latitude": 41.89426 },
	{
		"name": "N ASHLAND AVE & W IRVING PARK RD",
		"longitude": -87.66905,
		"latitude": 41.95429
	},
	{ "name": "N ASHLAND AVE & W JONQUIL TER", "longitude": -87.67072, "latitude": 42.02115 },
	{ "name": "N ASHLAND AVE & W JULIAN ST", "longitude": -87.66763, "latitude": 41.90836 },
	{ "name": "N ASHLAND AVE & W JUNEWAY TER", "longitude": -87.67071, "latitude": 42.02227 },
	{ "name": "N ASHLAND AVE & W KINZIE ST", "longitude": -87.66707, "latitude": 41.88885 },
	{ "name": "N ASHLAND AVE & W LAKE ST", "longitude": -87.66696, "latitude": 41.88533 },
	{
		"name": "N ASHLAND AVE & W LAWRENCE AVE",
		"longitude": -87.66944,
		"latitude": 41.96888
	},
	{ "name": "N ASHLAND AVE & W LE MOYNE ST", "longitude": -87.66765, "latitude": 41.90911 },
	{ "name": "N ASHLAND AVE & W LELAND AVE", "longitude": -87.6694, "latitude": 41.96705 },
	{ "name": "N ASHLAND AVE & W MADISON ST", "longitude": -87.6668, "latitude": 41.88146 },
	{ "name": "N ASHLAND AVE & W MAYPOLE AVE", "longitude": -87.66689, "latitude": 41.88427 },
	{ "name": "N ASHLAND AVE & W MELROSE ST", "longitude": -87.66868, "latitude": 41.94061 },
	{ "name": "N ASHLAND AVE & W MONTANA ST", "longitude": -87.66818, "latitude": 41.92606 },
	{
		"name": "N ASHLAND AVE & W MONTROSE AVE",
		"longitude": -87.66926,
		"latitude": 41.96159
	},
	{ "name": "N ASHLAND AVE & W NELSON ST", "longitude": -87.66856, "latitude": 41.93696 },
	{ "name": "N ASHLAND AVE & W NORTH AVE", "longitude": -87.66769, "latitude": 41.91063 },
	{
		"name": "N ASHLAND AVE & W NORTH SHORE AVE",
		"longitude": -87.67054,
		"latitude": 42.00355
	},
	{ "name": "N ASHLAND AVE & W OAKDALE AVE", "longitude": -87.66849, "latitude": 41.93514 },
	{ "name": "N ASHLAND AVE & W OHIO ST", "longitude": -87.66718, "latitude": 41.89243 },
	{ "name": "N ASHLAND AVE & W OLIVE AVE", "longitude": -87.66984, "latitude": 41.98433 },
	{ "name": "N ASHLAND AVE & W ONTARIO ST", "longitude": -87.6672, "latitude": 41.89278 },
	{ "name": "N ASHLAND AVE & W PEARSON ST", "longitude": -87.66733, "latitude": 41.89734 },
	{ "name": "N ASHLAND AVE & W PIERCE AVE", "longitude": -87.66767, "latitude": 41.90987 },
	{ "name": "N ASHLAND AVE & W PRATT BLVD", "longitude": -87.67059, "latitude": 42.00537 },
	{ "name": "N ASHLAND AVE & W RASCHER AVE", "longitude": -87.66974, "latitude": 41.98074 },
	{ "name": "N ASHLAND AVE & W ROSCOE ST", "longitude": -87.66876, "latitude": 41.94334 },
	{ "name": "N ASHLAND AVE & W ROSEHILL DR", "longitude": -87.66987, "latitude": 41.98675 },
	{ "name": "N ASHLAND AVE & W SCHOOL ST", "longitude": -87.66871, "latitude": 41.94152 },
	{
		"name": "N ASHLAND AVE & W SUMMERDALE AVE",
		"longitude": -87.66969,
		"latitude": 41.97891
	},
	{
		"name": "N ASHLAND AVE & W SUNNYSIDE AVE",
		"longitude": -87.6693,
		"latitude": 41.96341
	},
	{ "name": "N ASHLAND AVE & W SUPERIOR ST", "longitude": -87.66727, "latitude": 41.89516 },
	{ "name": "N ASHLAND AVE & W THOMAS ST", "longitude": -87.66744, "latitude": 41.90152 },
	{
		"name": "N ASHLAND AVE & W WABANSIA AVE",
		"longitude": -87.66774,
		"latitude": 41.91245
	},
	{ "name": "N ASHLAND AVE & W WALLEN AVE", "longitude": -87.67052, "latitude": 42.00264 },
	{ "name": "N ASHLAND AVE & W WALNUT ST", "longitude": -87.667, "latitude": 41.88615 },
	{ "name": "N ASHLAND AVE & W WALTON ST", "longitude": -87.66736, "latitude": 41.89857 },
	{ "name": "N ASHLAND AVE & W WARREN BLVD", "longitude": -87.66684, "latitude": 41.88238 },
	{
		"name": "N ASHLAND AVE & W WASHINGTON BLVD",
		"longitude": -87.66687,
		"latitude": 41.8833
	},
	{
		"name": "N ASHLAND AVE & W WAVELAND AVE",
		"longitude": -87.66891,
		"latitude": 41.94881
	},
	{ "name": "N ASHLAND AVE & W WEBSTER AVE", "longitude": -87.66863, "latitude": 41.92155 },
	{
		"name": "N ASHLAND AVE & W WELLINGTON AVE",
		"longitude": -87.66853,
		"latitude": 41.93605
	},
	{ "name": "N ASHLAND AVE & W WILSON AVE", "longitude": -87.66935, "latitude": 41.96523 },
	{
		"name": "N ASHLAND AVE & W WINNEMAC AVE",
		"longitude": -87.66956,
		"latitude": 41.97344
	},
	{ "name": "N ASHLAND AVE & W WINONA ST", "longitude": -87.6696, "latitude": 41.97525 },
	{ "name": "N ASHLAND AVE & W WOLFRAM ST", "longitude": -87.66843, "latitude": 41.93331 },
	{
		"name": "N ASHLAND AVE & W WRIGHTWOOD AVE",
		"longitude": -87.66827,
		"latitude": 41.92878
	},
	{ "name": "N ASHLAND BLVD & W CHASE AVE", "longitude": -87.67024, "latitude": 42.01384 },
	{ "name": "N ASHLAND BLVD & W ESTES AVE", "longitude": -87.67016, "latitude": 42.01149 },
	{
		"name": "N ASHLAND BLVD & W FARWELL AVE",
		"longitude": -87.66999,
		"latitude": 42.00662
	},
	{
		"name": "N ASHLAND BLVD & W GREENLEAF AVE",
		"longitude": -87.67012,
		"latitude": 42.01027
	},
	{ "name": "N ASHLAND BLVD & W JARVIS AVE", "longitude": -87.67031, "latitude": 42.01599 },
	{ "name": "N ASHLAND BLVD & W LUNT AVE", "longitude": -87.67007, "latitude": 42.00905 },
	{ "name": "N ASHLAND BLVD & W MORSE AVE", "longitude": -87.67003, "latitude": 42.00784 },
	{ "name": "N ASHLAND BLVD & W PRATT BLVD", "longitude": -87.66995, "latitude": 42.00539 },
	{
		"name": "N ASHLAND BLVD & W SHERWIN AVE",
		"longitude": -87.67028,
		"latitude": 42.01493
	},
	{ "name": "N ASHLAND BLVD & W TOUHY AVE", "longitude": -87.6702, "latitude": 42.01271 },
	{ "name": "N ASTOR ST & E BANKS ST", "longitude": -87.62751, "latitude": 41.90678 },
	{ "name": "N ASTOR ST & E BURTON PL", "longitude": -87.62761, "latitude": 41.9095 },
	{ "name": "N ASTOR ST & E DIVISION ST", "longitude": -87.62686, "latitude": 41.90397 },
	{ "name": "N ASTOR ST & E GOETHE ST", "longitude": -87.62731, "latitude": 41.90583 },
	{ "name": "N ASTOR ST & E NORTH AVE", "longitude": -87.62766, "latitude": 41.91124 },
	{ "name": "N ASTOR ST & E SCHILLER ST", "longitude": -87.62756, "latitude": 41.90782 },
	{ "name": "N ASTOR ST & E SCOTT ST", "longitude": -87.62708, "latitude": 41.90488 },
	{
		"name": "N AUSTIN AV JFK XR & N AVONDALE AVE",
		"longitude": -87.78,
		"latitude": 41.97967
	},
	{ "name": "N AUSTIN AVE & N ELSTON AVE", "longitude": -87.7779, "latitude": 41.98996 },
	{
		"name": "N AUSTIN AVE & N MILWAUKEE AVE",
		"longitude": -87.77796,
		"latitude": 41.98686
	},
	{
		"name": "N AUSTIN AVE & N NORTHWEST HWY",
		"longitude": -87.77809,
		"latitude": 41.98059
	},
	{ "name": "N AUSTIN AVE & W ADDISON ST", "longitude": -87.7765, "latitude": 41.94577 },
	{ "name": "N AUSTIN AVE & W ALTGELD ST", "longitude": -87.77578, "latitude": 41.92565 },
	{ "name": "N AUSTIN AVE & W ARDMORE AVE", "longitude": -87.77796, "latitude": 41.98656 },
	{ "name": "N AUSTIN AVE & W ARGYLE ST", "longitude": -87.77825, "latitude": 41.9721 },
	{ "name": "N AUSTIN AVE & W BARRY AVE", "longitude": -87.77615, "latitude": 41.93662 },
	{ "name": "N AUSTIN AVE & W BELDEN AVE", "longitude": -87.77565, "latitude": 41.92201 },
	{
		"name": "N AUSTIN AVE & W BELLE PLAINE AVE",
		"longitude": -87.77684,
		"latitude": 41.95488
	},
	{ "name": "N AUSTIN AVE & W BELMONT AVE", "longitude": -87.77621, "latitude": 41.93845 },
	{ "name": "N AUSTIN AVE & W BERENICE AVE", "longitude": -87.77668, "latitude": 41.95031 },
	{ "name": "N AUSTIN AVE & W BERTEAU AVE", "longitude": -87.7769, "latitude": 41.9567 },
	{ "name": "N AUSTIN AVE & W BERWYN AVE", "longitude": -87.77814, "latitude": 41.97748 },
	{
		"name": "N AUSTIN AVE & W BLOOMINGDALE AVE",
		"longitude": -87.77534,
		"latitude": 41.9129
	},
	{ "name": "N AUSTIN AVE & W BRYN MAWR AVE", "longitude": -87.77804, "latitude": 41.9829 },
	{ "name": "N AUSTIN AVE & W BYRON ST", "longitude": -87.77671, "latitude": 41.95121 },
	{ "name": "N AUSTIN AVE & W CARMEN AVE", "longitude": -87.77822, "latitude": 41.97393 },
	{ "name": "N AUSTIN AVE & W CORNELIA AVE", "longitude": -87.77643, "latitude": 41.94394 },
	{ "name": "N AUSTIN AVE & W CORTLAND ST", "longitude": -87.77539, "latitude": 41.91424 },
	{ "name": "N AUSTIN AVE & W CULLOM AVE", "longitude": -87.77696, "latitude": 41.95853 },
	{ "name": "N AUSTIN AVE & W DAKIN ST", "longitude": -87.77674, "latitude": 41.95211 },
	{ "name": "N AUSTIN AVE & W DICKENS AVE", "longitude": -87.77552, "latitude": 41.91791 },
	{ "name": "N AUSTIN AVE & W DIVERSEY AVE", "longitude": -87.77597, "latitude": 41.93114 },
	{ "name": "N AUSTIN AVE & W EASTWOOD AVE", "longitude": -87.77717, "latitude": 41.96492 },
	{ "name": "N AUSTIN AVE & W EDDY ST", "longitude": -87.77646, "latitude": 41.94486 },
	{ "name": "N AUSTIN AVE & W FLETCHER ST", "longitude": -87.77618, "latitude": 41.93754 },
	{ "name": "N AUSTIN AVE & W FOSTER AVE", "longitude": -87.77818, "latitude": 41.97567 },
	{
		"name": "N AUSTIN AVE & W FULLERTON AVE",
		"longitude": -87.77572,
		"latitude": 41.92383
	},
	{ "name": "N AUSTIN AVE & W GEORGE ST", "longitude": -87.77603, "latitude": 41.93296 },
	{ "name": "N AUSTIN AVE & W GIDDINGS ST", "longitude": -87.77723, "latitude": 41.96667 },
	{ "name": "N AUSTIN AVE & W GRACE ST", "longitude": -87.77664, "latitude": 41.94941 },
	{ "name": "N AUSTIN AVE & W GRAND AVE", "longitude": -87.7756, "latitude": 41.92056 },
	{ "name": "N AUSTIN AVE & W GUNNISON ST", "longitude": -87.77823, "latitude": 41.96853 },
	{ "name": "N AUSTIN AVE & W HENDERSON ST", "longitude": -87.77632, "latitude": 41.94119 },
	{ "name": "N AUSTIN AVE & W HIGGINS AVE", "longitude": -87.77823, "latitude": 41.97317 },
	{
		"name": "N AUSTIN AVE & W IRVING PARK RD",
		"longitude": -87.77677,
		"latitude": 41.95306
	},
	{ "name": "N AUSTIN AVE & W LAWRENCE AVE", "longitude": -87.77727, "latitude": 41.96765 },
	{ "name": "N AUSTIN AVE & W LELAND AVE", "longitude": -87.7772, "latitude": 41.96583 },
	{ "name": "N AUSTIN AVE & W MATSON AVE", "longitude": -87.77785, "latitude": 41.99291 },
	{ "name": "N AUSTIN AVE & W MELROSE ST", "longitude": -87.77625, "latitude": 41.93936 },
	{ "name": "N AUSTIN AVE & W MIAMI AVE", "longitude": -87.77787, "latitude": 41.9917 },
	{ "name": "N AUSTIN AVE & W MONTROSE AVE", "longitude": -87.77702, "latitude": 41.96035 },
	{ "name": "N AUSTIN AVE & W NELSON ST", "longitude": -87.77612, "latitude": 41.93571 },
	{ "name": "N AUSTIN AVE & W NEWPORT AVE", "longitude": -87.7764, "latitude": 41.94303 },
	{ "name": "N AUSTIN AVE & W NORTH AVE", "longitude": -87.7756, "latitude": 41.90925 },
	{
		"name": "N AUSTIN AVE & W PATTERSON AVE",
		"longitude": -87.77654,
		"latitude": 41.94668
	},
	{ "name": "N AUSTIN AVE & W PETERSON AVE", "longitude": -87.77789, "latitude": 41.9902 },
	{ "name": "N AUSTIN AVE & W ROSCOE ST", "longitude": -87.77636, "latitude": 41.94211 },
	{ "name": "N AUSTIN AVE & W SCHOOL ST", "longitude": -87.77629, "latitude": 41.94028 },
	{ "name": "N AUSTIN AVE & W SCHUBERT AVE", "longitude": -87.7759, "latitude": 41.92931 },
	{ "name": "N AUSTIN AVE & W SEMINOLE ST", "longitude": -87.778, "latitude": 41.98473 },
	{ "name": "N AUSTIN AVE & W STRONG ST", "longitude": -87.77829, "latitude": 41.97031 },
	{
		"name": "N AUSTIN AVE & W SUNNYSIDE AVE",
		"longitude": -87.77708,
		"latitude": 41.96222
	},
	{
		"name": "N AUSTIN AVE & W THORNDALE AVE",
		"longitude": -87.77793,
		"latitude": 41.98839
	},
	{ "name": "N AUSTIN AVE & W WABANSIA AVE", "longitude": -87.77528, "latitude": 41.91108 },
	{ "name": "N AUSTIN AVE & W WARWICK AVE", "longitude": -87.77661, "latitude": 41.9485 },
	{ "name": "N AUSTIN AVE & W WAVELAND AVE", "longitude": -87.77657, "latitude": 41.94759 },
	{
		"name": "N AUSTIN AVE & W WELLINGTON AVE",
		"longitude": -87.77609,
		"latitude": 41.93479
	},
	{ "name": "N AUSTIN AVE & W WILSON AVE", "longitude": -87.77714, "latitude": 41.964 },
	{
		"name": "N AUSTIN AVE & W WRIGHTWOOD AVE",
		"longitude": -87.77584,
		"latitude": 41.92748
	},
	{
		"name": "N AUSTIN BLVD & W AUGUSTA BLVD",
		"longitude": -87.77525,
		"latitude": 41.89836
	},
	{ "name": "N AUSTIN BLVD & W CHICAGO AVE", "longitude": -87.77513, "latitude": 41.89471 },
	{ "name": "N AUSTIN BLVD & W CORCORAN PL", "longitude": -87.77488, "latitude": 41.8871 },
	{ "name": "N AUSTIN BLVD & W DIVISION ST", "longitude": -87.77536, "latitude": 41.902 },
	{ "name": "N AUSTIN BLVD & W ERIE ST", "longitude": -87.77504, "latitude": 41.89188 },
	{ "name": "N AUSTIN BLVD & W FULTON ST", "longitude": -87.77483, "latitude": 41.88557 },
	{ "name": "N AUSTIN BLVD & W HIRSCH ST", "longitude": -87.77548, "latitude": 41.90563 },
	{ "name": "N AUSTIN BLVD & W HURON ST", "longitude": -87.77507, "latitude": 41.89281 },
	{ "name": "N AUSTIN BLVD & W IOWA ST", "longitude": -87.77519, "latitude": 41.89653 },
	{ "name": "N AUSTIN BLVD & W LAKE ST", "longitude": -87.77491, "latitude": 41.88802 },
	{ "name": "N AUSTIN BLVD & W LE MOYNE ST", "longitude": -87.77554, "latitude": 41.90744 },
	{ "name": "N AUSTIN BLVD & W MADISON ST", "longitude": -87.77466, "latitude": 41.88009 },
	{ "name": "N AUSTIN BLVD & W MIDWAY PARK", "longitude": -87.77494, "latitude": 41.88895 },
	{ "name": "N AUSTIN BLVD & W OHIO ST", "longitude": -87.77501, "latitude": 41.891 },
	{ "name": "N AUSTIN BLVD & W POTOMAC AVE", "longitude": -87.77542, "latitude": 41.90381 },
	{ "name": "N AUSTIN BLVD & W RACE AVE", "longitude": -87.77497, "latitude": 41.89002 },
	{ "name": "N AUSTIN BLVD & W RICE ST", "longitude": -87.77516, "latitude": 41.89562 },
	{ "name": "N AUSTIN BLVD & W SUPERIOR ST", "longitude": -87.7751, "latitude": 41.8938 },
	{ "name": "N AUSTIN BLVD & W THOMAS ST", "longitude": -87.7753, "latitude": 41.90017 },
	{ "name": "N AUSTIN BLVD & W WALTON ST", "longitude": -87.77522, "latitude": 41.89745 },
	{
		"name": "N AUSTIN BLVD & W WASHINGTON BLVD",
		"longitude": -87.77472,
		"latitude": 41.8821
	},
	{
		"name": "N AUSTIN BLVD & W WEST END AVE",
		"longitude": -87.77478,
		"latitude": 41.88405
	},
	{ "name": "N AVERS AVE & N ELSTON AVE", "longitude": -87.72404, "latitude": 41.95703 },
	{ "name": "N AVERS AVE & N PARKVIEW TER", "longitude": -87.72385, "latitude": 41.95041 },
	{ "name": "N AVERS AVE & N ROGERS AVE", "longitude": -87.72512, "latitude": 41.99253 },
	{ "name": "N AVERS AVE & W ADDISON ST", "longitude": -87.72383, "latitude": 41.94642 },
	{ "name": "N AVERS AVE & W AINSLIE ST", "longitude": -87.72445, "latitude": 41.9701 },
	{ "name": "N AVERS AVE & W ALTGELD ST", "longitude": -87.72316, "latitude": 41.92637 },
	{ "name": "N AVERS AVE & W ARGYLE ST", "longitude": -87.7245, "latitude": 41.97193 },
	{ "name": "N AVERS AVE & W ARMITAGE AVE", "longitude": -87.72289, "latitude": 41.91721 },
	{ "name": "N AVERS AVE & W AUGUSTA BLVD", "longitude": -87.72253, "latitude": 41.89905 },
	{ "name": "N AVERS AVE & W BELDEN AVE", "longitude": -87.72305, "latitude": 41.9227 },
	{
		"name": "N AVERS AVE & W BELLE PLAINE AVE",
		"longitude": -87.724,
		"latitude": 41.95553
	},
	{ "name": "N AVERS AVE & W BELMONT AVE", "longitude": -87.72352, "latitude": 41.93914 },
	{ "name": "N AVERS AVE & W BERTEAU AVE", "longitude": -87.72405, "latitude": 41.95735 },
	{ "name": "N AVERS AVE & W BYRON ST", "longitude": -87.72389, "latitude": 41.95189 },
	{ "name": "N AVERS AVE & W CARMEN AVE", "longitude": -87.72455, "latitude": 41.97375 },
	{ "name": "N AVERS AVE & W CHICAGO AVE", "longitude": -87.72241, "latitude": 41.8954 },
	{ "name": "N AVERS AVE & W CORNELIA AVE", "longitude": -87.72368, "latitude": 41.9446 },
	{ "name": "N AVERS AVE & W CULLOM AVE", "longitude": -87.72411, "latitude": 41.95917 },
	{ "name": "N AVERS AVE & W DEVON AVE", "longitude": -87.72522, "latitude": 41.99725 },
	{ "name": "N AVERS AVE & W DICKENS AVE", "longitude": -87.72294, "latitude": 41.91904 },
	{ "name": "N AVERS AVE & W DIVERSEY AVE", "longitude": -87.7233, "latitude": 41.93184 },
	{ "name": "N AVERS AVE & W DIVISION ST", "longitude": -87.72265, "latitude": 41.9027 },
	{ "name": "N AVERS AVE & W FERDINAND ST", "longitude": -87.72226, "latitude": 41.8899 },
	{ "name": "N AVERS AVE & W FOSTER AVE", "longitude": -87.7246, "latitude": 41.97557 },
	{ "name": "N AVERS AVE & W FULLERTON AVE", "longitude": -87.7231, "latitude": 41.92453 },
	{ "name": "N AVERS AVE & W FULTON ST", "longitude": -87.72253, "latitude": 41.8868 },
	{ "name": "N AVERS AVE & W GEORGE ST", "longitude": -87.72335, "latitude": 41.93366 },
	{ "name": "N AVERS AVE & W GRAND AVE", "longitude": -87.72271, "latitude": 41.90469 },
	{ "name": "N AVERS AVE & W GRANVILLE AVE", "longitude": -87.72517, "latitude": 41.99371 },
	{ "name": "N AVERS AVE & W HIRSCH ST", "longitude": -87.72276, "latitude": 41.90631 },
	{ "name": "N AVERS AVE & W HURON ST", "longitude": -87.72236, "latitude": 41.89357 },
	{ "name": "N AVERS AVE & W IOWA ST", "longitude": -87.72247, "latitude": 41.89723 },
	{ "name": "N AVERS AVE & W IRVING PARK RD", "longitude": -87.72394, "latitude": 41.9537 },
	{ "name": "N AVERS AVE & W LAKE ST", "longitude": -87.72249, "latitude": 41.88529 },
	{ "name": "N AVERS AVE & W LAWRENCE AVE", "longitude": -87.72439, "latitude": 41.96828 },
	{ "name": "N AVERS AVE & W LE MOYNE ST", "longitude": -87.72282, "latitude": 41.90811 },
	{ "name": "N AVERS AVE & W LELAND AVE", "longitude": -87.72431, "latitude": 41.96646 },
	{ "name": "N AVERS AVE & W MONTROSE AVE", "longitude": -87.72416, "latitude": 41.96099 },
	{ "name": "N AVERS AVE & W NORTH AVE", "longitude": -87.72267, "latitude": 41.90993 },
	{ "name": "N AVERS AVE & W OHIO ST", "longitude": -87.72231, "latitude": 41.89173 },
	{ "name": "N AVERS AVE & W PALMER ST", "longitude": -87.723, "latitude": 41.92087 },
	{ "name": "N AVERS AVE & W ROSCOE ST", "longitude": -87.72363, "latitude": 41.94278 },
	{ "name": "N AVERS AVE & W ROSEMONT AVE", "longitude": -87.72519, "latitude": 41.99548 },
	{ "name": "N AVERS AVE & W SCHOOL ST", "longitude": -87.72357, "latitude": 41.94096 },
	{ "name": "N AVERS AVE & W SCHUBERT AVE", "longitude": -87.72326, "latitude": 41.93005 },
	{ "name": "N AVERS AVE & W SUNNYSIDE AVE", "longitude": -87.72421, "latitude": 41.96286 },
	{ "name": "N AVERS AVE & W THOMAS ST", "longitude": -87.72259, "latitude": 41.90088 },
	{ "name": "N AVERS AVE & W WABANSIA AVE", "longitude": -87.72274, "latitude": 41.91175 },
	{ "name": "N AVERS AVE & W WAVELAND AVE", "longitude": -87.72388, "latitude": 41.94824 },
	{
		"name": "N AVERS AVE & W WELLINGTON AVE",
		"longitude": -87.72341,
		"latitude": 41.93547
	},
	{ "name": "N AVERS AVE & W WILSON AVE", "longitude": -87.72426, "latitude": 41.96464 },
	{
		"name": "N AVERS AVE & W WRIGHTWOOD AVE",
		"longitude": -87.72321,
		"latitude": 41.92819
	},
	{ "name": "N AVONDALE AVE & N KEDZIE AVE", "longitude": -87.70764, "latitude": 41.9386 },
	{ "name": "N AVONDALE AVE & N KIMBALL AVE", "longitude": -87.7126, "latitude": 41.94244 },
	{ "name": "N AVONDALE AVE & N OGALLAH AVE", "longitude": -87.81407, "latitude": 41.9992 },
	{
		"name": "N AVONDALE AVE & N OLIPHANT AVE",
		"longitude": -87.8177,
		"latitude": 42.00125
	},
	{ "name": "N AVONDALE AVE & N PULASKI RD", "longitude": -87.72753, "latitude": 41.95091 },
	{ "name": "N AVONDALE AVE & N SAYRE AVE", "longitude": -87.80322, "latitude": 41.99377 },
	{ "name": "N AVONDALE AVE & W ADDISON ST", "longitude": -87.71977, "latitude": 41.94647 },
	{ "name": "N AVONDALE AVE & W AINSLIE ST", "longitude": -87.7597, "latitude": 41.96921 },
	{ "name": "N AVONDALE AVE & W ALTGELD ST", "longitude": -87.68643, "latitude": 41.92643 },
	{
		"name": "N AVONDALE AVE & W BALMORAL AVE",
		"longitude": -87.77944,
		"latitude": 41.97935
	},
	{ "name": "N AVONDALE AVE & W BERWYN AVE", "longitude": -87.77614, "latitude": 41.97747 },
	{
		"name": "N AVONDALE AVE & W BRYN MAWR AVE",
		"longitude": -87.78405,
		"latitude": 41.98291
	},
	{ "name": "N AVONDALE AVE & W BYRON ST", "longitude": -87.72914, "latitude": 41.95183 },
	{
		"name": "N AVONDALE AVE & W COLUMBIA AVE",
		"longitude": -87.81921,
		"latitude": 42.00279
	},
	{
		"name": "N AVONDALE AVE & W CORNELIA AVE",
		"longitude": -87.71818,
		"latitude": 41.94465
	},
	{ "name": "N AVONDALE AVE & W DEVON AVE", "longitude": -87.81035, "latitude": 41.99712 },
	{
		"name": "N AVONDALE AVE & W DICKENS AVE",
		"longitude": -87.67427,
		"latitude": 41.91963
	},
	{ "name": "N AVONDALE AVE & W EDDY ST", "longitude": -87.71855, "latitude": 41.94558 },
	{ "name": "N AVONDALE AVE & W FOSTER AVE", "longitude": -87.77334, "latitude": 41.97568 },
	{ "name": "N AVONDALE AVE & W GEORGE ST", "longitude": -87.69971, "latitude": 41.9339 },
	{ "name": "N AVONDALE AVE & W GREGORY ST", "longitude": -87.78347, "latitude": 41.98161 },
	{
		"name": "N AVONDALE AVE & W HIGHLAND AVE",
		"longitude": -87.80896,
		"latitude": 41.9963
	},
	{ "name": "N AVONDALE AVE & W HOBART AVE", "longitude": -87.78951, "latitude": 41.986 },
	{ "name": "N AVONDALE AVE & W HURLBUT ST", "longitude": -87.7907, "latitude": 41.98668 },
	{
		"name": "N AVONDALE AVE & W IRVING PARK RD",
		"longitude": -87.73224,
		"latitude": 41.9536
	},
	{ "name": "N AVONDALE AVE & W ISHAM AVE", "longitude": -87.81197, "latitude": 41.99801 },
	{
		"name": "N AVONDALE AVE & W LAWRENCE AVE",
		"longitude": -87.75754,
		"latitude": 41.9679
	},
	{ "name": "N AVONDALE AVE & W LYNDALE ST", "longitude": -87.67977, "latitude": 41.9227 },
	{ "name": "N AVONDALE AVE & W MONTANA ST", "longitude": -87.68533, "latitude": 41.92569 },
	{
		"name": "N AVONDALE AVE & W NORTH SHORE AVE",
		"longitude": -87.81866,
		"latitude": 42.00181
	},
	{
		"name": "N AVONDALE AVE & W PALATINE AVE",
		"longitude": -87.80612,
		"latitude": 41.99539
	},
	{ "name": "N AVONDALE AVE & W RAVEN ST", "longitude": -87.79973, "latitude": 41.99179 },
	{
		"name": "N AVONDALE AVE & W SCHUBERT AVE",
		"longitude": -87.69394,
		"latitude": 41.93029
	},
	{
		"name": "N AVONDALE AVE & W SOMERSET AVE",
		"longitude": -87.7877,
		"latitude": 41.98498
	},
	{
		"name": "N AVONDALE AVE & W THORNDALE AVE",
		"longitude": -87.79461,
		"latitude": 41.98889
	},
	{ "name": "N BAGGOT CT & W HIGHLAND AVE", "longitude": -87.67772, "latitude": 41.99667 },
	{ "name": "N BEACON ST & W LAWRENCE AVE", "longitude": -87.66443, "latitude": 41.96895 },
	{ "name": "N BEACON ST & W LELAND AVE", "longitude": -87.66412, "latitude": 41.96713 },
	{ "name": "N BEACON ST & W MONTROSE AVE", "longitude": -87.66374, "latitude": 41.96166 },
	{ "name": "N BEACON ST & W SUNNYSIDE AVE", "longitude": -87.66376, "latitude": 41.96349 },
	{ "name": "N BEACON ST & W WILSON AVE", "longitude": -87.66384, "latitude": 41.96531 },
	{ "name": "N BEAUBIEN CT & E LAKE ST", "longitude": -87.62391, "latitude": 41.88577 },
	{ "name": "N BEAUBIEN CT & E RANDOLPH ST", "longitude": -87.6239, "latitude": 41.88444 },
	{ "name": "N BELL AVE & N OAKLEY AVE", "longitude": -87.68547, "latitude": 41.93258 },
	{ "name": "N BELL AVE & W ADDISON ST", "longitude": -87.68462, "latitude": 41.94678 },
	{ "name": "N BELL AVE & W AINSLIE ST", "longitude": -87.68532, "latitude": 41.97049 },
	{ "name": "N BELL AVE & W ARGYLE ST", "longitude": -87.68538, "latitude": 41.97231 },
	{ "name": "N BELL AVE & W ARTHUR AVE", "longitude": -87.68628, "latitude": 41.99961 },
	{
		"name": "N BELL AVE & W BELLE PLAINE AVE",
		"longitude": -87.68488,
		"latitude": 41.9559
	},
	{ "name": "N BELL AVE & W BERTEAU AVE", "longitude": -87.68493, "latitude": 41.95772 },
	{ "name": "N BELL AVE & W BERWYN AVE", "longitude": -87.68558, "latitude": 41.97776 },
	{ "name": "N BELL AVE & W BYRON ST", "longitude": -87.68477, "latitude": 41.95225 },
	{ "name": "N BELL AVE & W CHASE AVE", "longitude": -87.68619, "latitude": 42.01406 },
	{ "name": "N BELL AVE & W CORNELIA AVE", "longitude": -87.68456, "latitude": 41.94496 },
	{ "name": "N BELL AVE & W CULLOM AVE", "longitude": -87.68499, "latitude": 41.95954 },
	{ "name": "N BELL AVE & W DEVON AVE", "longitude": -87.68623, "latitude": 41.99779 },
	{ "name": "N BELL AVE & W ESTES AVE", "longitude": -87.68606, "latitude": 42.01111 },
	{ "name": "N BELL AVE & W FARWELL AVE", "longitude": -87.68593, "latitude": 42.00633 },
	{ "name": "N BELL AVE & W FULTON ST", "longitude": -87.68291, "latitude": 41.88668 },
	{ "name": "N BELL AVE & W GRACE ST", "longitude": -87.68472, "latitude": 41.95043 },
	{ "name": "N BELL AVE & W GRANVILLE AVE", "longitude": -87.68608, "latitude": 41.99416 },
	{ "name": "N BELL AVE & W GREENLEAF AVE", "longitude": -87.68604, "latitude": 42.01 },
	{ "name": "N BELL AVE & W HIGHLAND AVE", "longitude": -87.68619, "latitude": 41.99688 },
	{ "name": "N BELL AVE & W HIRSCH ST", "longitude": -87.68347, "latitude": 41.90673 },
	{ "name": "N BELL AVE & W HOWARD ST", "longitude": -87.68651, "latitude": 42.01951 },
	{ "name": "N BELL AVE & W IRVING PARK RD", "longitude": -87.68483, "latitude": 41.95407 },
	{ "name": "N BELL AVE & W JARVIS AVE", "longitude": -87.68618, "latitude": 42.01559 },
	{ "name": "N BELL AVE & W LAKE ST", "longitude": -87.68277, "latitude": 41.88476 },
	{ "name": "N BELL AVE & W LAWRENCE AVE", "longitude": -87.68526, "latitude": 41.96867 },
	{ "name": "N BELL AVE & W LE MOYNE ST", "longitude": -87.68351, "latitude": 41.90855 },
	{ "name": "N BELL AVE & W LUNT AVE", "longitude": -87.68603, "latitude": 42.00878 },
	{ "name": "N BELL AVE & W MAYPOLE AVE", "longitude": -87.68275, "latitude": 41.88392 },
	{ "name": "N BELL AVE & W MONTROSE AVE", "longitude": -87.68504, "latitude": 41.96136 },
	{ "name": "N BELL AVE & W MORSE AVE", "longitude": -87.68598, "latitude": 42.00724 },
	{ "name": "N BELL AVE & W NORTH AVE", "longitude": -87.68356, "latitude": 41.91038 },
	{ "name": "N BELL AVE & W PALMER ST", "longitude": -87.68369, "latitude": 41.92191 },
	{ "name": "N BELL AVE & W POTOMAC AVE", "longitude": -87.68341, "latitude": 41.9049 },
	{ "name": "N BELL AVE & W PRATT BLVD", "longitude": -87.68591, "latitude": 42.0051 },
	{ "name": "N BELL AVE & W ROSCOE ST", "longitude": -87.68451, "latitude": 41.94314 },
	{ "name": "N BELL AVE & W ROSEMONT AVE", "longitude": -87.68616, "latitude": 41.99598 },
	{ "name": "N BELL AVE & W SCHOOL ST", "longitude": -87.68446, "latitude": 41.94132 },
	{
		"name": "N BELL AVE & W SHAKESPEARE AVE",
		"longitude": -87.68365,
		"latitude": 41.92068
	},
	{ "name": "N BELL AVE & W THOME AVE", "longitude": -87.68612, "latitude": 41.99506 },
	{ "name": "N BELL AVE & W TOUHY AVE", "longitude": -87.68621, "latitude": 42.01224 },
	{ "name": "N BELL AVE & W WAVELAND AVE", "longitude": -87.68467, "latitude": 41.94861 },
	{ "name": "N BELL AVE & W WOLFRAM ST", "longitude": -87.68451, "latitude": 41.93294 },
	{ "name": "N BERNARD ST & W ADDISON ST", "longitude": -87.71394, "latitude": 41.94655 },
	{ "name": "N BERNARD ST & W AINSLIE ST", "longitude": -87.71464, "latitude": 41.97021 },
	{ "name": "N BERNARD ST & W ALTGELD ST", "longitude": -87.71337, "latitude": 41.92646 },
	{ "name": "N BERNARD ST & W ARDMORE AVE", "longitude": -87.71509, "latitude": 41.98663 },
	{ "name": "N BERNARD ST & W BALMORAL AVE", "longitude": -87.71485, "latitude": 41.97934 },
	{ "name": "N BERNARD ST & W BARRY AVE", "longitude": -87.71365, "latitude": 41.93745 },
	{
		"name": "N BERNARD ST & W BELLE PLAINE AVE",
		"longitude": -87.71419,
		"latitude": 41.95566
	},
	{ "name": "N BERNARD ST & W BELMONT AVE", "longitude": -87.71371, "latitude": 41.93926 },
	{ "name": "N BERNARD ST & W BERTEAU AVE", "longitude": -87.71425, "latitude": 41.95748 },
	{ "name": "N BERNARD ST & W BERWYN AVE", "longitude": -87.7148, "latitude": 41.97751 },
	{
		"name": "N BERNARD ST & W BRYN MAWR AVE",
		"longitude": -87.71496,
		"latitude": 41.98299
	},
	{ "name": "N BERNARD ST & W BYRON ST", "longitude": -87.71406, "latitude": 41.95202 },
	{ "name": "N BERNARD ST & W CARMEN AVE", "longitude": -87.7147, "latitude": 41.97256 },
	{ "name": "N BERNARD ST & W CATALPA AVE", "longitude": -87.7149, "latitude": 41.98118 },
	{ "name": "N BERNARD ST & W CULLOM AVE", "longitude": -87.71431, "latitude": 41.9593 },
	{ "name": "N BERNARD ST & W FOSTER AVE", "longitude": -87.71478, "latitude": 41.97568 },
	{
		"name": "N BERNARD ST & W FULLERTON AVE",
		"longitude": -87.71333,
		"latitude": 41.92465
	},
	{ "name": "N BERNARD ST & W GLENLAKE AVE", "longitude": -87.71526, "latitude": 41.99203 },
	{ "name": "N BERNARD ST & W GRACE ST", "longitude": -87.71403, "latitude": 41.9502 },
	{
		"name": "N BERNARD ST & W GRANVILLE AVE",
		"longitude": -87.71531,
		"latitude": 41.99379
	},
	{
		"name": "N BERNARD ST & W HOLLYWOOD AVE",
		"longitude": -87.71503,
		"latitude": 41.98481
	},
	{
		"name": "N BERNARD ST & W IRVING PARK RD",
		"longitude": -87.71412,
		"latitude": 41.95384
	},
	{ "name": "N BERNARD ST & W LAWRENCE AVE", "longitude": -87.71459, "latitude": 41.96839 },
	{ "name": "N BERNARD ST & W LELAND AVE", "longitude": -87.71454, "latitude": 41.96657 },
	{ "name": "N BERNARD ST & W MONTROSE AVE", "longitude": -87.71436, "latitude": 41.96111 },
	{ "name": "N BERNARD ST & W PETERSON AVE", "longitude": -87.7152, "latitude": 41.99031 },
	{
		"name": "N BERNARD ST & W SUNNYSIDE AVE",
		"longitude": -87.71442,
		"latitude": 41.96294
	},
	{
		"name": "N BERNARD ST & W THORNDALE AVE",
		"longitude": -87.71514,
		"latitude": 41.98844
	},
	{ "name": "N BERNARD ST & W WAVELAND AVE", "longitude": -87.71399, "latitude": 41.94838 },
	{ "name": "N BERNARD ST & W WILSON AVE", "longitude": -87.71447, "latitude": 41.96475 },
	{
		"name": "N BERNARD ST & W WRIGHTWOOD AVE",
		"longitude": -87.71342,
		"latitude": 41.9283
	},
	{ "name": "N BESLY CT & W CORTLAND ST", "longitude": -87.66697, "latitude": 41.91631 },
	{ "name": "N BESLY CT & W NORTH AVE", "longitude": -87.66305, "latitude": 41.9107 },
	{ "name": "N BESLY CT & W WABANSIA AVE", "longitude": -87.66447, "latitude": 41.91279 },
	{ "name": "N BINGHAM ST & W ARMITAGE AVE", "longitude": -87.69043, "latitude": 41.91755 },
	{ "name": "N BINGHAM ST & W FRANCIS PL", "longitude": -87.69384, "latitude": 41.91971 },
	{ "name": "N BISHOP ST & W CHICAGO AVE", "longitude": -87.66358, "latitude": 41.89613 },
	{ "name": "N BISHOP ST & W ERIE ST", "longitude": -87.66396, "latitude": 41.89339 },
	{ "name": "N BISHOP ST & W FRY ST", "longitude": -87.66362, "latitude": 41.89703 },
	{ "name": "N BISHOP ST & W GRAND AVE", "longitude": -87.66389, "latitude": 41.89101 },
	{ "name": "N BISHOP ST & W HUBBARD ST", "longitude": -87.66323, "latitude": 41.88994 },
	{ "name": "N BISHOP ST & W HURON ST", "longitude": -87.66398, "latitude": 41.89431 },
	{ "name": "N BISHOP ST & W MADISON ST", "longitude": -87.66369, "latitude": 41.8815 },
	{ "name": "N BISHOP ST & W OHIO ST", "longitude": -87.66392, "latitude": 41.89218 },
	{ "name": "N BISHOP ST & W SUPERIOR ST", "longitude": -87.66401, "latitude": 41.89521 },
	{
		"name": "N BISHOP ST & W WASHINGTON BLVD",
		"longitude": -87.66373,
		"latitude": 41.88288
	},
	{ "name": "N BISSELL ST & N DAYTON ST", "longitude": -87.64952, "latitude": 41.91197 },
	{ "name": "N BISSELL ST & N FREMONT ST", "longitude": -87.65077, "latitude": 41.91287 },
	{ "name": "N BISSELL ST & W ARMITAGE AVE", "longitude": -87.65215, "latitude": 41.91812 },
	{ "name": "N BISSELL ST & W BELDEN AVE", "longitude": -87.65234, "latitude": 41.92358 },
	{ "name": "N BISSELL ST & W DICKENS AVE", "longitude": -87.65221, "latitude": 41.91994 },
	{ "name": "N BISSELL ST & W WEBSTER AVE", "longitude": -87.65228, "latitude": 41.92176 },
	{ "name": "N BISSELL ST & W WILLOW ST", "longitude": -87.65197, "latitude": 41.91377 },
	{ "name": "N BISSELL ST & W WISCONSIN ST", "longitude": -87.65207, "latitude": 41.91598 },
	{
		"name": "N BOSWORTH AVE & N CLYBOURN AVE",
		"longitude": -87.66729,
		"latitude": 41.92369
	},
	{ "name": "N BOSWORTH AVE & W ADDISON ST", "longitude": -87.66765, "latitude": 41.94701 },
	{ "name": "N BOSWORTH AVE & W ALBION AVE", "longitude": -87.66928, "latitude": 42.00174 },
	{ "name": "N BOSWORTH AVE & W ALTGELD ST", "longitude": -87.667, "latitude": 41.92698 },
	{ "name": "N BOSWORTH AVE & W ARTHUR AVE", "longitude": -87.66922, "latitude": 41.99992 },
	{
		"name": "N BOSWORTH AVE & W BLACKHAWK ST",
		"longitude": -87.66632,
		"latitude": 41.90701
	},
	{
		"name": "N BOSWORTH AVE & W CORNELIA AVE",
		"longitude": -87.6676,
		"latitude": 41.94518
	},
	{ "name": "N BOSWORTH AVE & W DEVON AVE", "longitude": -87.66917, "latitude": 41.99809 },
	{
		"name": "N BOSWORTH AVE & W DIVERSEY PKWY",
		"longitude": -87.66719,
		"latitude": 41.93242
	},
	{
		"name": "N BOSWORTH AVE & W DIVISION ST",
		"longitude": -87.66615,
		"latitude": 41.90336
	},
	{
		"name": "N BOSWORTH AVE & W FULLERTON AVE",
		"longitude": -87.66699,
		"latitude": 41.92517
	},
	{ "name": "N BOSWORTH AVE & W GRACE ST", "longitude": -87.66774, "latitude": 41.95066 },
	{ "name": "N BOSWORTH AVE & W HOWARD ST", "longitude": -87.6695, "latitude": 42.01936 },
	{
		"name": "N BOSWORTH AVE & W JONQUIL TER",
		"longitude": -87.66948,
		"latitude": 42.02114
	},
	{
		"name": "N BOSWORTH AVE & W LE MOYNE ST",
		"longitude": -87.66642,
		"latitude": 41.90883
	},
	{ "name": "N BOSWORTH AVE & W NORTH AVE", "longitude": -87.6665, "latitude": 41.91065 },
	{
		"name": "N BOSWORTH AVE & W NORTH SHORE AVE",
		"longitude": -87.66933,
		"latitude": 42.00357
	},
	{ "name": "N BOSWORTH AVE & W PRATT BLVD", "longitude": -87.66938, "latitude": 42.00539 },
	{ "name": "N BOSWORTH AVE & W ROSCOE ST", "longitude": -87.66755, "latitude": 41.94336 },
	{
		"name": "N BOSWORTH AVE & W SCHREIBER AVE",
		"longitude": -87.6692,
		"latitude": 41.99899
	},
	{
		"name": "N BOSWORTH AVE & W WABANSIA AVE",
		"longitude": -87.66684,
		"latitude": 41.91245
	},
	{
		"name": "N BOSWORTH AVE & W WAVELAND AVE",
		"longitude": -87.66769,
		"latitude": 41.94883
	},
	{
		"name": "N BOSWORTH AVE & W WRIGHTWOOD AVE",
		"longitude": -87.66706,
		"latitude": 41.9288
	},
	{
		"name": "N BOWMANVILLE AVE & N DAMEN AVE",
		"longitude": -87.67954,
		"latitude": 41.98193
	},
	{
		"name": "N BOWMANVILLE AVE & W BALMORAL AVE",
		"longitude": -87.68422,
		"latitude": 41.9796
	},
	{
		"name": "N BOWMANVILLE AVE & W BERWYN AVE",
		"longitude": -87.68845,
		"latitude": 41.97772
	},
	{
		"name": "N BREAKWATER ACCESS & E RANDOLPH ST",
		"longitude": -87.61008,
		"latitude": 41.88411
	},
	{ "name": "N BROADWAY & N CLARENDON AVE", "longitude": -87.64967, "latitude": 41.95319 },
	{ "name": "N BROADWAY & N CLARK ST", "longitude": -87.64489, "latitude": 41.9328 },
	{ "name": "N BROADWAY & N CLIFTON AVE", "longitude": -87.65901, "latitude": 41.96779 },
	{ "name": "N BROADWAY & N RACINE AVE", "longitude": -87.65937, "latitude": 41.96836 },
	{ "name": "N BROADWAY & N SHERIDAN RD", "longitude": -87.65473, "latitude": 41.96113 },
	{ "name": "N BROADWAY & W ADDISON ST", "longitude": -87.64728, "latitude": 41.94735 },
	{ "name": "N BROADWAY & W AINSLIE ST", "longitude": -87.65974, "latitude": 41.97146 },
	{ "name": "N BROADWAY & W ALDINE AVE", "longitude": -87.64447, "latitude": 41.94223 },
	{ "name": "N BROADWAY & W ARDMORE AVE", "longitude": -87.66018, "latitude": 41.98727 },
	{ "name": "N BROADWAY & W ARGYLE ST", "longitude": -87.65977, "latitude": 41.97268 },
	{ "name": "N BROADWAY & W BALMORAL AVE", "longitude": -87.65997, "latitude": 41.97997 },
	{ "name": "N BROADWAY & W BARRY AVE", "longitude": -87.64433, "latitude": 41.9379 },
	{
		"name": "N BROADWAY & W BELLE PLAINE AVE",
		"longitude": -87.6521,
		"latitude": 41.95699
	},
	{ "name": "N BROADWAY & W BELMONT AVE", "longitude": -87.6444, "latitude": 41.94004 },
	{ "name": "N BROADWAY & W BERWYN AVE", "longitude": -87.65992, "latitude": 41.97814 },
	{ "name": "N BROADWAY & W BRADLEY PL", "longitude": -87.64877, "latitude": 41.94981 },
	{ "name": "N BROADWAY & W BRIAR PL", "longitude": -87.64437, "latitude": 41.93915 },
	{ "name": "N BROADWAY & W BROMPTON AVE", "longitude": -87.64682, "latitude": 41.9466 },
	{ "name": "N BROADWAY & W BRYN MAWR AVE", "longitude": -87.66007, "latitude": 41.98362 },
	{ "name": "N BROADWAY & W BUCKINGHAM PL", "longitude": -87.64451, "latitude": 41.94278 },
	{ "name": "N BROADWAY & W BUENA AVE", "longitude": -87.65303, "latitude": 41.95845 },
	{ "name": "N BROADWAY & W CARMEN AVE", "longitude": -87.65982, "latitude": 41.97462 },
	{ "name": "N BROADWAY & W CATALPA AVE", "longitude": -87.66002, "latitude": 41.9818 },
	{ "name": "N BROADWAY & W CORNELIA AVE", "longitude": -87.64615, "latitude": 41.9455 },
	{ "name": "N BROADWAY & W CULLOM AVE", "longitude": -87.65407, "latitude": 41.96008 },
	{ "name": "N BROADWAY & W CUYLER AVE", "longitude": -87.65122, "latitude": 41.95562 },
	{ "name": "N BROADWAY & W DAKIN ST", "longitude": -87.65006, "latitude": 41.95384 },
	{ "name": "N BROADWAY & W DIVERSEY PKWY", "longitude": -87.64489, "latitude": 41.9328 },
	{ "name": "N BROADWAY & W EARLY AVE", "longitude": -87.66013, "latitude": 41.98575 },
	{ "name": "N BROADWAY & W ELMDALE AVE", "longitude": -87.66029, "latitude": 41.99092 },
	{ "name": "N BROADWAY & W FOSTER AVE", "longitude": -87.65987, "latitude": 41.97632 },
	{ "name": "N BROADWAY & W GLENLAKE AVE", "longitude": -87.66035, "latitude": 41.99273 },
	{ "name": "N BROADWAY & W GORDON TER", "longitude": -87.65256, "latitude": 41.95772 },
	{ "name": "N BROADWAY & W GRACE ST", "longitude": -87.64962, "latitude": 41.9512 },
	{ "name": "N BROADWAY & W GRANVILLE AVE", "longitude": -87.66041, "latitude": 41.99455 },
	{ "name": "N BROADWAY & W GUNNISON ST", "longitude": -87.6597, "latitude": 41.97024 },
	{ "name": "N BROADWAY & W HAWTHORNE PL", "longitude": -87.64531, "latitude": 41.94414 },
	{ "name": "N BROADWAY & W HOLLYWOOD AVE", "longitude": -87.66013, "latitude": 41.98546 },
	{ "name": "N BROADWAY & W HOOD AVE", "longitude": -87.66038, "latitude": 41.99363 },
	{ "name": "N BROADWAY & W IRVING PARK RD", "longitude": -87.65053, "latitude": 41.95455 },
	{ "name": "N BROADWAY & W LAWRENCE AVE", "longitude": -87.65967, "latitude": 41.96903 },
	{ "name": "N BROADWAY & W LELAND AVE", "longitude": -87.65863, "latitude": 41.96721 },
	{ "name": "N BROADWAY & W MELROSE ST", "longitude": -87.64443, "latitude": 41.94113 },
	{ "name": "N BROADWAY & W MONTROSE AVE", "longitude": -87.65514, "latitude": 41.96177 },
	{ "name": "N BROADWAY & W NORWOOD ST", "longitude": -87.66032, "latitude": 41.99182 },
	{ "name": "N BROADWAY & W OAKDALE AVE", "longitude": -87.64425, "latitude": 41.93559 },
	{ "name": "N BROADWAY & W PATTERSON AVE", "longitude": -87.64785, "latitude": 41.9483 },
	{ "name": "N BROADWAY & W ROSCOE ST", "longitude": -87.64504, "latitude": 41.94368 },
	{ "name": "N BROADWAY & W ROSEDALE AVE", "longitude": -87.66024, "latitude": 41.98906 },
	{ "name": "N BROADWAY & W ROSEMONT AVE", "longitude": -87.66046, "latitude": 41.99637 },
	{ "name": "N BROADWAY & W SHERIDAN RD", "longitude": -87.64965, "latitude": 41.95275 },
	{ "name": "N BROADWAY & W STRATFORD PL", "longitude": -87.64574, "latitude": 41.94484 },
	{ "name": "N BROADWAY & W SUNNYSIDE AVE", "longitude": -87.65631, "latitude": 41.96357 },
	{ "name": "N BROADWAY & W SURF ST", "longitude": -87.64422, "latitude": 41.93488 },
	{ "name": "N BROADWAY & W THORNDALE AVE", "longitude": -87.66027, "latitude": 41.99 },
	{ "name": "N BROADWAY & W VICTORIA ST", "longitude": -87.66017, "latitude": 41.98695 },
	{ "name": "N BROADWAY & W WAVELAND AVE", "longitude": -87.64837, "latitude": 41.94917 },
	{ "name": "N BROADWAY & W WELLINGTON AVE", "longitude": -87.64428, "latitude": 41.93651 },
	{ "name": "N BROADWAY & W WILSON AVE", "longitude": -87.65747, "latitude": 41.9654 },
	{ "name": "N BROADWAY & W WINNEMAC AVE", "longitude": -87.65979, "latitude": 41.97364 },
	{ "name": "N BROADWAY & W WINONA ST", "longitude": -87.65984, "latitude": 41.97543 },
	{
		"name": "N BRYN MAWR AV LSD ER & N LAKE SHORE DR",
		"longitude": -87.65282,
		"latitude": 41.98152
	},
	{
		"name": "N BRYN MAWR AV LSD ER & W BRYN MAWR AVE",
		"longitude": -87.6537,
		"latitude": 41.98386
	},
	{ "name": "N BURLING ST & W ARMITAGE AVE", "longitude": -87.64731, "latitude": 41.91819 },
	{ "name": "N BURLING ST & W BELDEN AVE", "longitude": -87.64748, "latitude": 41.92365 },
	{ "name": "N BURLING ST & W CONCORD PL", "longitude": -87.64707, "latitude": 41.9114 },
	{ "name": "N BURLING ST & W DICKENS AVE", "longitude": -87.64739, "latitude": 41.91999 },
	{
		"name": "N BURLING ST & W DIVERSEY PKWY",
		"longitude": -87.64767,
		"latitude": 41.93275
	},
	{ "name": "N BURLING ST & W DIVISION ST", "longitude": -87.64775, "latitude": 41.90364 },
	{ "name": "N BURLING ST & W EASTMAN ST", "longitude": -87.64735, "latitude": 41.90675 },
	{
		"name": "N BURLING ST & W EVERGREEN AVE",
		"longitude": -87.64734,
		"latitude": 41.90639
	},
	{ "name": "N BURLING ST & W FAIR PL", "longitude": -87.64733, "latitude": 41.90599 },
	{
		"name": "N BURLING ST & W FULLERTON AVE",
		"longitude": -87.64754,
		"latitude": 41.92547
	},
	{ "name": "N BURLING ST & W OAKDALE AVE", "longitude": -87.64814, "latitude": 41.93559 },
	{ "name": "N BURLING ST & W SCHUBERT AVE", "longitude": -87.64775, "latitude": 41.93157 },
	{ "name": "N BURLING ST & W SCOTT ST", "longitude": -87.6473, "latitude": 41.90498 },
	{ "name": "N BURLING ST & W WEBSTER AVE", "longitude": -87.64743, "latitude": 41.92183 },
	{ "name": "N BURLING ST & W WILLOW ST", "longitude": -87.64716, "latitude": 41.91385 },
	{
		"name": "N BURLING ST & W WRIGHTWOOD AVE",
		"longitude": -87.64766,
		"latitude": 41.92909
	},
	{ "name": "N BUSSE AVE & W ARGYLE ST", "longitude": -87.79572, "latitude": 41.97197 },
	{ "name": "N BUSSE AVE & W WINNEMAC AVE", "longitude": -87.79571, "latitude": 41.97283 },
	{
		"name": "N CALDWELL AVE & N CENTRAL AVE",
		"longitude": -87.76421,
		"latitude": 41.99614
	},
	{
		"name": "N CALDWELL AVE & N CHICORA AVE",
		"longitude": -87.77174,
		"latitude": 41.99965
	},
	{ "name": "N CALDWELL AVE & N CICERO AVE", "longitude": -87.74832, "latitude": 41.98876 },
	{
		"name": "N CALDWELL AVE & N EDENS CALDWELL ER",
		"longitude": -87.75188,
		"latitude": 41.99051
	},
	{
		"name": "N CALDWELL AVE & N FOREST GLEN AVE",
		"longitude": -87.7449,
		"latitude": 41.98715
	},
	{ "name": "N CALDWELL AVE & N JEAN AVE", "longitude": -87.77863, "latitude": 42.00286 },
	{ "name": "N CALDWELL AVE & N KEATING AVE", "longitude": -87.7471, "latitude": 41.98819 },
	{ "name": "N CALDWELL AVE & N KENTON AVE", "longitude": -87.74313, "latitude": 41.98633 },
	{ "name": "N CALDWELL AVE & N KEOTA AVE", "longitude": -87.77278, "latitude": 42.00013 },
	{
		"name": "N CALDWELL AVE & N KILPATRICK AVE",
		"longitude": -87.74604,
		"latitude": 41.98769
	},
	{ "name": "N CALDWELL AVE & N KOLMAR AVE", "longitude": -87.74191, "latitude": 41.98575 },
	{
		"name": "N CALDWELL AVE & N LANDERS AVE",
		"longitude": -87.75314,
		"latitude": 41.99097
	},
	{ "name": "N CALDWELL AVE & N LE MAI AVE", "longitude": -87.75933, "latitude": 41.99386 },
	{ "name": "N CALDWELL AVE & N LEADER AVE", "longitude": -87.75417, "latitude": 41.99145 },
	{ "name": "N CALDWELL AVE & N LEGETT AVE", "longitude": -87.75522, "latitude": 41.99194 },
	{ "name": "N CALDWELL AVE & N LEHIGH AVE", "longitude": -87.76543, "latitude": 41.99671 },
	{ "name": "N CALDWELL AVE & N LENOX AVE", "longitude": -87.75624, "latitude": 41.99241 },
	{ "name": "N CALDWELL AVE & N LEONA AVE", "longitude": -87.75727, "latitude": 41.9929 },
	{ "name": "N CALDWELL AVE & N LEROY AVE", "longitude": -87.75831, "latitude": 41.99338 },
	{
		"name": "N CALDWELL AVE & N LIGHTFOOT AVE",
		"longitude": -87.77588,
		"latitude": 42.00157
	},
	{ "name": "N CALDWELL AVE & N LOLETA AVE", "longitude": -87.77381, "latitude": 42.00061 },
	{ "name": "N CALDWELL AVE & N LORON AVE", "longitude": -87.77485, "latitude": 42.00109 },
	{
		"name": "N CALDWELL AVE & N MCALPIN AVE",
		"longitude": -87.78468,
		"latitude": 42.00726
	},
	{
		"name": "N CALDWELL AVE & N MENDOTA AVE",
		"longitude": -87.78245,
		"latitude": 42.00482
	},
	{
		"name": "N CALDWELL AVE & N MINNEHAHA AVE",
		"longitude": -87.76347,
		"latitude": 41.99579
	},
	{
		"name": "N CALDWELL AVE & N MINNETONKA AVE",
		"longitude": -87.76865,
		"latitude": 41.9982
	},
	{
		"name": "N CALDWELL AVE & N MOSELLE AVE",
		"longitude": -87.78321,
		"latitude": 42.00554
	},
	{ "name": "N CALDWELL AVE & N NAVAJO AVE", "longitude": -87.76037, "latitude": 41.99434 },
	{
		"name": "N CALDWELL AVE & N NOKOMIS AVE",
		"longitude": -87.76141,
		"latitude": 41.99483
	},
	{
		"name": "N CALDWELL AVE & N PONCHARTRAIN BLVD",
		"longitude": -87.77071,
		"latitude": 41.99916
	},
	{ "name": "N CALDWELL AVE & N ROGERS AVE", "longitude": -87.74078, "latitude": 41.98523 },
	{
		"name": "N CALDWELL AVE & N SPOKANE AVE",
		"longitude": -87.76244,
		"latitude": 41.99531
	},
	{ "name": "N CALDWELL AVE & N TONTY AVE", "longitude": -87.78136, "latitude": 42.00413 },
	{
		"name": "N CALDWELL AVE & N WAUKESHA AVE",
		"longitude": -87.76967,
		"latitude": 41.99868
	},
	{
		"name": "N CALDWELL AVE & N WILDWOOD AVE",
		"longitude": -87.78002,
		"latitude": 42.00351
	},
	{ "name": "N CALDWELL AVE & W DEVON AVE", "longitude": -87.76669, "latitude": 41.9973 },
	{ "name": "N CALDWELL AVE & W ESTES AVE", "longitude": -87.78708, "latitude": 42.01008 },
	{
		"name": "N CALDWELL AVE & W GREENLEAF AVE",
		"longitude": -87.78616,
		"latitude": 42.009
	},
	{
		"name": "N CALDWELL AVE & W PETERSON AVE",
		"longitude": -87.75112,
		"latitude": 41.99029
	},
	{
		"name": "N CALIFORNIA AVE & N ELSTON AVE",
		"longitude": -87.69781,
		"latitude": 41.93904
	},
	{
		"name": "N CALIFORNIA AVE & N KENNEDY CALIFORNIA AV ER",
		"longitude": -87.69767,
		"latitude": 41.93395
	},
	{
		"name": "N CALIFORNIA AVE & N KENNEDY CALIFORNIA AV XR",
		"longitude": -87.69763,
		"latitude": 41.93264
	},
	{
		"name": "N CALIFORNIA AVE & N LINCOLN AVE",
		"longitude": -87.69924,
		"latitude": 41.98554
	},
	{
		"name": "N CALIFORNIA AVE & N MILWAUKEE AVE",
		"longitude": -87.69736,
		"latitude": 41.92291
	},
	{
		"name": "N CALIFORNIA AVE & W ADDISON ST",
		"longitude": -87.69803,
		"latitude": 41.94668
	},
	{
		"name": "N CALIFORNIA AVE & W AINSLIE ST",
		"longitude": -87.69876,
		"latitude": 41.97072
	},
	{
		"name": "N CALIFORNIA AVE & W ALBION AVE",
		"longitude": -87.69974,
		"latitude": 42.0012
	},
	{
		"name": "N CALIFORNIA AVE & W ALTGELD ST",
		"longitude": -87.69746,
		"latitude": 41.92663
	},
	{
		"name": "N CALIFORNIA AVE & W ARDMORE AVE",
		"longitude": -87.69928,
		"latitude": 41.98676
	},
	{
		"name": "N CALIFORNIA AVE & W ARGYLE ST",
		"longitude": -87.69881,
		"latitude": 41.97218
	},
	{
		"name": "N CALIFORNIA AVE & W ARMITAGE AVE",
		"longitude": -87.6972,
		"latitude": 41.91749
	},
	{
		"name": "N CALIFORNIA AVE & W ARTHUR AVE",
		"longitude": -87.6997,
		"latitude": 41.99939
	},
	{
		"name": "N CALIFORNIA AVE & W AUGUSTA BLVD",
		"longitude": -87.69679,
		"latitude": 41.89928
	},
	{
		"name": "N CALIFORNIA AVE & W BALMORAL AVE",
		"longitude": -87.69904,
		"latitude": 41.97947
	},
	{
		"name": "N CALIFORNIA AVE & W BARRY AVE",
		"longitude": -87.69777,
		"latitude": 41.93757
	},
	{
		"name": "N CALIFORNIA AVE & W BELLE PLAINE AVE",
		"longitude": -87.69829,
		"latitude": 41.95579
	},
	{
		"name": "N CALIFORNIA AVE & W BELMONT AVE",
		"longitude": -87.69782,
		"latitude": 41.93939
	},
	{
		"name": "N CALIFORNIA AVE & W BERTEAU AVE",
		"longitude": -87.69835,
		"latitude": 41.9576
	},
	{
		"name": "N CALIFORNIA AVE & W BERWYN AVE",
		"longitude": -87.69898,
		"latitude": 41.97764
	},
	{
		"name": "N CALIFORNIA AVE & W BIRCHWOOD AVE",
		"longitude": -87.69962,
		"latitude": 42.01751
	},
	{
		"name": "N CALIFORNIA AVE & W BLOOMINGDALE AVE",
		"longitude": -87.6971,
		"latitude": 41.914
	},
	{
		"name": "N CALIFORNIA AVE & W BRYN MAWR AVE",
		"longitude": -87.69916,
		"latitude": 41.98312
	},
	{ "name": "N CALIFORNIA AVE & W BYRON ST", "longitude": -87.69819, "latitude": 41.95215 },
	{ "name": "N CALIFORNIA AVE & W CARMEN AVE", "longitude": -87.69887, "latitude": 41.974 },
	{
		"name": "N CALIFORNIA AVE & W CATALPA AVE",
		"longitude": -87.6991,
		"latitude": 41.9813
	},
	{
		"name": "N CALIFORNIA AVE & W CHASE AVE",
		"longitude": -87.69969,
		"latitude": 42.01388
	},
	{
		"name": "N CALIFORNIA AVE & W CHICAGO AVE",
		"longitude": -87.6967,
		"latitude": 41.89565
	},
	{ "name": "N CALIFORNIA AVE & W CORTEZ ST", "longitude": -87.69682, "latitude": 41.9005 },
	{
		"name": "N CALIFORNIA AVE & W CORTLAND ST",
		"longitude": -87.69715,
		"latitude": 41.91567
	},
	{
		"name": "N CALIFORNIA AVE & W COYLE AVE",
		"longitude": -87.69979,
		"latitude": 42.00756
	},
	{
		"name": "N CALIFORNIA AVE & W CRYSTAL ST",
		"longitude": -87.6969,
		"latitude": 41.90387
	},
	{
		"name": "N CALIFORNIA AVE & W CULLOM AVE",
		"longitude": -87.69841,
		"latitude": 41.95941
	},
	{
		"name": "N CALIFORNIA AVE & W DEVON AVE",
		"longitude": -87.69964,
		"latitude": 41.99756
	},
	{
		"name": "N CALIFORNIA AVE & W DICKENS AVE",
		"longitude": -87.69726,
		"latitude": 41.91959
	},
	{
		"name": "N CALIFORNIA AVE & W DIVERSEY AVE",
		"longitude": -87.69762,
		"latitude": 41.9321
	},
	{
		"name": "N CALIFORNIA AVE & W DIVISION ST",
		"longitude": -87.69688,
		"latitude": 41.90293
	},
	{
		"name": "N CALIFORNIA AVE & W ESTES AVE",
		"longitude": -87.69975,
		"latitude": 42.01027
	},
	{
		"name": "N CALIFORNIA AVE & W EVERGREEN AVE",
		"longitude": -87.69695,
		"latitude": 41.90566
	},
	{
		"name": "N CALIFORNIA AVE & W FARGO AVE",
		"longitude": -87.69963,
		"latitude": 42.01661
	},
	{
		"name": "N CALIFORNIA AVE & W FARRAGUT AVE",
		"longitude": -87.69895,
		"latitude": 41.97673
	},
	{
		"name": "N CALIFORNIA AVE & W FARWELL AVE",
		"longitude": -87.69982,
		"latitude": 42.00575
	},
	{
		"name": "N CALIFORNIA AVE & W FITCH AVE",
		"longitude": -87.69973,
		"latitude": 42.01117
	},
	{
		"name": "N CALIFORNIA AVE & W FLETCHER ST",
		"longitude": -87.6978,
		"latitude": 41.93848
	},
	{
		"name": "N CALIFORNIA AVE & W FOSTER AVE",
		"longitude": -87.69892,
		"latitude": 41.97582
	},
	{
		"name": "N CALIFORNIA AVE & W FRANCIS PL",
		"longitude": -87.69722,
		"latitude": 41.91814
	},
	{
		"name": "N CALIFORNIA AVE & W FULLERTON AVE",
		"longitude": -87.69741,
		"latitude": 41.92481
	},
	{
		"name": "N CALIFORNIA AVE & W FULTON ST",
		"longitude": -87.69643,
		"latitude": 41.88654
	},
	{
		"name": "N CALIFORNIA AVE & W GEORGE ST",
		"longitude": -87.69768,
		"latitude": 41.93446
	},
	{
		"name": "N CALIFORNIA AVE & W GLENLAKE AVE",
		"longitude": -87.69946,
		"latitude": 41.99219
	},
	{ "name": "N CALIFORNIA AVE & W GRACE ST", "longitude": -87.69814, "latitude": 41.95033 },
	{
		"name": "N CALIFORNIA AVE & W GRAND AVE",
		"longitude": -87.69667,
		"latitude": 41.89433
	},
	{
		"name": "N CALIFORNIA AVE & W GRANVILLE AVE",
		"longitude": -87.69952,
		"latitude": 41.99398
	},
	{
		"name": "N CALIFORNIA AVE & W GREENLEAF AVE",
		"longitude": -87.69976,
		"latitude": 42.00936
	},
	{
		"name": "N CALIFORNIA AVE & W GREGORY ST",
		"longitude": -87.69913,
		"latitude": 41.98221
	},
	{
		"name": "N CALIFORNIA AVE & W GUNNISON ST",
		"longitude": -87.69873,
		"latitude": 41.96963
	},
	{
		"name": "N CALIFORNIA AVE & W HADDON AVE",
		"longitude": -87.69686,
		"latitude": 41.90199
	},
	{
		"name": "N CALIFORNIA AVE & W HENDERSON ST",
		"longitude": -87.6979,
		"latitude": 41.94188
	},
	{
		"name": "N CALIFORNIA AVE & W HIRSCH ST",
		"longitude": -87.69697,
		"latitude": 41.90658
	},
	{
		"name": "N CALIFORNIA AVE & W HOLLYWOOD AVE",
		"longitude": -87.69922,
		"latitude": 41.98494
	},
	{
		"name": "N CALIFORNIA AVE & W HOWARD ST",
		"longitude": -87.69959,
		"latitude": 42.01933
	},
	{ "name": "N CALIFORNIA AVE & W IOWA ST", "longitude": -87.69675, "latitude": 41.89746 },
	{
		"name": "N CALIFORNIA AVE & W IRVING PARK RD",
		"longitude": -87.69824,
		"latitude": 41.95397
	},
	{
		"name": "N CALIFORNIA AVE & W JARLATH ST",
		"longitude": -87.69971,
		"latitude": 42.01298
	},
	{
		"name": "N CALIFORNIA AVE & W JARVIS AVE",
		"longitude": -87.69965,
		"latitude": 42.0157
	},
	{ "name": "N CALIFORNIA AVE & W JEROME ST", "longitude": -87.6996, "latitude": 42.01842 },
	{ "name": "N CALIFORNIA AVE & W LAKE ST", "longitude": -87.69637, "latitude": 41.88424 },
	{
		"name": "N CALIFORNIA AVE & W LAWRENCE AVE",
		"longitude": -87.69869,
		"latitude": 41.96853
	},
	{
		"name": "N CALIFORNIA AVE & W LE MOYNE DR",
		"longitude": -87.69701,
		"latitude": 41.9084
	},
	{
		"name": "N CALIFORNIA AVE & W LOGAN BLVD",
		"longitude": -87.69752,
		"latitude": 41.92847
	},
	{ "name": "N CALIFORNIA AVE & W LUNT AVE", "longitude": -87.69977, "latitude": 42.00846 },
	{
		"name": "N CALIFORNIA AVE & W LYNDALE ST",
		"longitude": -87.69734,
		"latitude": 41.92242
	},
	{
		"name": "N CALIFORNIA AVE & W MADISON ST",
		"longitude": -87.69629,
		"latitude": 41.88108
	},
	{
		"name": "N CALIFORNIA AVE & W MAYPOLE AVE",
		"longitude": -87.69636,
		"latitude": 41.88365
	},
	{
		"name": "N CALIFORNIA AVE & W MCLEAN AVE",
		"longitude": -87.69723,
		"latitude": 41.91854
	},
	{
		"name": "N CALIFORNIA AVE & W MEDILL AVE",
		"longitude": -87.69739,
		"latitude": 41.92386
	},
	{
		"name": "N CALIFORNIA AVE & W MELROSE ST",
		"longitude": -87.69785,
		"latitude": 41.94024
	},
	{
		"name": "N CALIFORNIA AVE & W MONTROSE AVE",
		"longitude": -87.69848,
		"latitude": 41.96125
	},
	{ "name": "N CALIFORNIA AVE & W MORSE AVE", "longitude": -87.6998, "latitude": 42.00666 },
	{
		"name": "N CALIFORNIA AVE & W NELSON ST",
		"longitude": -87.69775,
		"latitude": 41.93666
	},
	{
		"name": "N CALIFORNIA AVE & W NORTH AVE",
		"longitude": -87.69703,
		"latitude": 41.91022
	},
	{
		"name": "N CALIFORNIA AVE & W NORTH SHORE AVE",
		"longitude": -87.69979,
		"latitude": 42.00302
	},
	{
		"name": "N CALIFORNIA AVE & W PALMER ST",
		"longitude": -87.69732,
		"latitude": 41.92169
	},
	{
		"name": "N CALIFORNIA AVE & W PETERSON AVE",
		"longitude": -87.6994,
		"latitude": 41.99044
	},
	{
		"name": "N CALIFORNIA AVE & W POTOMAC AVE",
		"longitude": -87.69692,
		"latitude": 41.90475
	},
	{
		"name": "N CALIFORNIA AVE & W PRATT BLVD",
		"longitude": -87.69983,
		"latitude": 42.00485
	},
	{
		"name": "N CALIFORNIA AVE & W RASCHER AVE",
		"longitude": -87.69907,
		"latitude": 41.98038
	},
	{
		"name": "N CALIFORNIA AVE & W ROSCOE ST",
		"longitude": -87.69792,
		"latitude": 41.94279
	},
	{
		"name": "N CALIFORNIA AVE & W ROSEMONT AVE",
		"longitude": -87.69958,
		"latitude": 41.99577
	},
	{
		"name": "N CALIFORNIA AVE & W SCHUBERT AVE",
		"longitude": -87.69757,
		"latitude": 41.93028
	},
	{
		"name": "N CALIFORNIA AVE & W SHAKESPEARE AVE",
		"longitude": -87.69729,
		"latitude": 41.92064
	},
	{
		"name": "N CALIFORNIA AVE & W SHERWIN AVE",
		"longitude": -87.69967,
		"latitude": 42.01479
	},
	{
		"name": "N CALIFORNIA AVE & W SUMMERDALE AVE",
		"longitude": -87.69901,
		"latitude": 41.97856
	},
	{
		"name": "N CALIFORNIA AVE & W SUNNYSIDE AVE",
		"longitude": -87.69852,
		"latitude": 41.96308
	},
	{
		"name": "N CALIFORNIA AVE & W SUPERIOR ST",
		"longitude": -87.69667,
		"latitude": 41.89472
	},
	{
		"name": "N CALIFORNIA AVE & W THOMAS ST",
		"longitude": -87.69684,
		"latitude": 41.90111
	},
	{
		"name": "N CALIFORNIA AVE & W THORNDALE AVE",
		"longitude": -87.69934,
		"latitude": 41.98858
	},
	{
		"name": "N CALIFORNIA AVE & W TOUHY AVE",
		"longitude": -87.69972,
		"latitude": 42.01207
	},
	{
		"name": "N CALIFORNIA AVE & W WABANSIA AVE",
		"longitude": -87.69705,
		"latitude": 41.91236
	},
	{
		"name": "N CALIFORNIA AVE & W WALNUT ST",
		"longitude": -87.69641,
		"latitude": 41.88551
	},
	{
		"name": "N CALIFORNIA AVE & W WALTON ST",
		"longitude": -87.69676,
		"latitude": 41.89807
	},
	{
		"name": "N CALIFORNIA AVE & W WARREN BLVD",
		"longitude": -87.69631,
		"latitude": 41.88199
	},
	{
		"name": "N CALIFORNIA AVE & W WASHINGTON BLVD",
		"longitude": -87.69634,
		"latitude": 41.8829
	},
	{
		"name": "N CALIFORNIA AVE & W WAVELAND AVE",
		"longitude": -87.69808,
		"latitude": 41.9485
	},
	{
		"name": "N CALIFORNIA AVE & W WELLINGTON AVE",
		"longitude": -87.69772,
		"latitude": 41.93574
	},
	{
		"name": "N CALIFORNIA AVE & W WINNEMAC AVE",
		"longitude": -87.69884,
		"latitude": 41.97309
	},
	{
		"name": "N CALIFORNIA AVE & W WINONA ST",
		"longitude": -87.69889,
		"latitude": 41.97473
	},
	{
		"name": "N CAMBRIDGE AVE & W BELDEN AVE",
		"longitude": -87.64222,
		"latitude": 41.92373
	},
	{
		"name": "N CAMBRIDGE AVE & W BELMONT AVE",
		"longitude": -87.64319,
		"latitude": 41.94007
	},
	{ "name": "N CAMBRIDGE AVE & W BRIAR PL", "longitude": -87.64314, "latitude": 41.93871 },
	{
		"name": "N CAMBRIDGE AVE & W CHESTNUT ST",
		"longitude": -87.64181,
		"latitude": 41.89807
	},
	{
		"name": "N CAMBRIDGE AVE & W CHICAGO AVE",
		"longitude": -87.64175,
		"latitude": 41.89649
	},
	{
		"name": "N CAMBRIDGE AVE & W DELAWARE PL",
		"longitude": -87.64186,
		"latitude": 41.89934
	},
	{
		"name": "N CAMBRIDGE AVE & W DIVERSEY PKWY",
		"longitude": -87.64274,
		"latitude": 41.93284
	},
	{
		"name": "N CAMBRIDGE AVE & W DIVISION ST",
		"longitude": -87.64221,
		"latitude": 41.90373
	},
	{ "name": "N CAMBRIDGE AVE & W ELM ST", "longitude": -87.64216, "latitude": 41.90268 },
	{
		"name": "N CAMBRIDGE AVE & W FULLERTON PKWY",
		"longitude": -87.64275,
		"latitude": 41.92555
	},
	{ "name": "N CAMBRIDGE AVE & W HOBBIE ST", "longitude": -87.64213, "latitude": 41.90152 },
	{ "name": "N CAMBRIDGE AVE & W IOWA ST", "longitude": -87.64182, "latitude": 41.89835 },
	{ "name": "N CAMBRIDGE AVE & W LOCUST ST", "longitude": -87.64184, "latitude": 41.89885 },
	{ "name": "N CAMBRIDGE AVE & W OAK ST", "longitude": -87.64209, "latitude": 41.90043 },
	{
		"name": "N CAMBRIDGE AVE & W PEARSON ST",
		"longitude": -87.64178,
		"latitude": 41.89736
	},
	{ "name": "N CAMBRIDGE AVE & W SURF ST", "longitude": -87.64279, "latitude": 41.93428 },
	{ "name": "N CAMBRIDGE AVE & W WALTON ST", "longitude": -87.64188, "latitude": 41.89984 },
	{
		"name": "N CAMPBELL AVE & N MILWAUKEE AVE",
		"longitude": -87.68921,
		"latitude": 41.91794
	},
	{ "name": "N CAMPBELL AVE & W ADDISON ST", "longitude": -87.69068, "latitude": 41.94673 },
	{ "name": "N CAMPBELL AVE & W ALBION AVE", "longitude": -87.69242, "latitude": 42.00132 },
	{ "name": "N CAMPBELL AVE & W ALTGELD ST", "longitude": -87.69015, "latitude": 41.92669 },
	{ "name": "N CAMPBELL AVE & W ARDMORE AVE", "longitude": -87.69199, "latitude": 41.9868 },
	{
		"name": "N CAMPBELL AVE & W ARMITAGE AVE",
		"longitude": -87.68986,
		"latitude": 41.91755
	},
	{ "name": "N CAMPBELL AVE & W ARTHUR AVE", "longitude": -87.69237, "latitude": 41.9995 },
	{
		"name": "N CAMPBELL AVE & W AUGUSTA BLVD",
		"longitude": -87.6894,
		"latitude": 41.89935
	},
	{
		"name": "N CAMPBELL AVE & W BALMORAL AVE",
		"longitude": -87.69174,
		"latitude": 41.97951
	},
	{ "name": "N CAMPBELL AVE & W BARRY AVE", "longitude": -87.69006, "latitude": 41.93764 },
	{ "name": "N CAMPBELL AVE & W BELDEN AVE", "longitude": -87.68935, "latitude": 41.92328 },
	{
		"name": "N CAMPBELL AVE & W BELLE PLAINE AVE",
		"longitude": -87.69097,
		"latitude": 41.95583
	},
	{ "name": "N CAMPBELL AVE & W BELMONT AVE", "longitude": -87.6906, "latitude": 41.93944 },
	{
		"name": "N CAMPBELL AVE & W BERENICE AVE",
		"longitude": -87.69077,
		"latitude": 41.95127
	},
	{ "name": "N CAMPBELL AVE & W BERTEAU AVE", "longitude": -87.6917, "latitude": 41.95765 },
	{ "name": "N CAMPBELL AVE & W BERWYN AVE", "longitude": -87.69104, "latitude": 41.97769 },
	{
		"name": "N CAMPBELL AVE & W BIRCHWOOD AVE",
		"longitude": -87.69255,
		"latitude": 42.01767
	},
	{
		"name": "N CAMPBELL AVE & W BLOOMINGDALE AVE",
		"longitude": -87.68976,
		"latitude": 41.91397
	},
	{ "name": "N CAMPBELL AVE & W BRADLEY PL", "longitude": -87.6908, "latitude": 41.94944 },
	{
		"name": "N CAMPBELL AVE & W BRYN MAWR AVE",
		"longitude": -87.69187,
		"latitude": 41.98316
	},
	{ "name": "N CAMPBELL AVE & W BYRON ST", "longitude": -87.69079, "latitude": 41.95218 },
	{
		"name": "N CAMPBELL AVE & W CATALPA AVE",
		"longitude": -87.69181,
		"latitude": 41.98136
	},
	{
		"name": "N CAMPBELL AVE & W CHARLESTON ST",
		"longitude": -87.68924,
		"latitude": 41.91998
	},
	{
		"name": "N CAMPBELL AVE & W CHICAGO AVE",
		"longitude": -87.68931,
		"latitude": 41.89572
	},
	{ "name": "N CAMPBELL AVE & W CORTEZ ST", "longitude": -87.68942, "latitude": 41.90027 },
	{
		"name": "N CAMPBELL AVE & W CORTLAND ST",
		"longitude": -87.68981,
		"latitude": 41.91574
	},
	{ "name": "N CAMPBELL AVE & W COYLE AVE", "longitude": -87.69255, "latitude": 42.0077 },
	{ "name": "N CAMPBELL AVE & W CULLOM AVE", "longitude": -87.69175, "latitude": 41.95947 },
	{ "name": "N CAMPBELL AVE & W CUYLER AVE", "longitude": -87.69094, "latitude": 41.95492 },
	{ "name": "N CAMPBELL AVE & W DAKIN ST", "longitude": -87.69082, "latitude": 41.95308 },
	{ "name": "N CAMPBELL AVE & W DEVON AVE", "longitude": -87.69232, "latitude": 41.99769 },
	{
		"name": "N CAMPBELL AVE & W DIVERSEY AVE",
		"longitude": -87.69035,
		"latitude": 41.93215
	},
	{
		"name": "N CAMPBELL AVE & W DIVISION ST",
		"longitude": -87.68949,
		"latitude": 41.90299
	},
	{
		"name": "N CAMPBELL AVE & W EASTWOOD AVE",
		"longitude": -87.69126,
		"latitude": 41.96572
	},
	{ "name": "N CAMPBELL AVE & W ERIE ST", "longitude": -87.68919, "latitude": 41.893 },
	{ "name": "N CAMPBELL AVE & W FARGO AVE", "longitude": -87.69256, "latitude": 42.01676 },
	{
		"name": "N CAMPBELL AVE & W FARWELL AVE",
		"longitude": -87.69252,
		"latitude": 42.00589
	},
	{ "name": "N CAMPBELL AVE & W FLETCHER ST", "longitude": -87.69011, "latitude": 41.9385 },
	{
		"name": "N CAMPBELL AVE & W FULLERTON AVE",
		"longitude": -87.69008,
		"latitude": 41.92488
	},
	{ "name": "N CAMPBELL AVE & W FULTON ST", "longitude": -87.68905, "latitude": 41.88661 },
	{ "name": "N CAMPBELL AVE & W GEORGE ST", "longitude": -87.69037, "latitude": 41.93397 },
	{
		"name": "N CAMPBELL AVE & W GLENLAKE AVE",
		"longitude": -87.69215,
		"latitude": 41.99225
	},
	{ "name": "N CAMPBELL AVE & W GRACE ST", "longitude": -87.69073, "latitude": 41.95037 },
	{ "name": "N CAMPBELL AVE & W GRAND AVE", "longitude": -87.68918, "latitude": 41.89135 },
	{
		"name": "N CAMPBELL AVE & W GRANVILLE AVE",
		"longitude": -87.69221,
		"latitude": 41.99406
	},
	{ "name": "N CAMPBELL AVE & W HADDON AVE", "longitude": -87.68947, "latitude": 41.90206 },
	{ "name": "N CAMPBELL AVE & W HIRSCH ST", "longitude": -87.68958, "latitude": 41.90664 },
	{
		"name": "N CAMPBELL AVE & W HOLLYWOOD AVE",
		"longitude": -87.69193,
		"latitude": 41.98498
	},
	{ "name": "N CAMPBELL AVE & W HOMER ST", "longitude": -87.68983, "latitude": 41.91665 },
	{ "name": "N CAMPBELL AVE & W HUBBARD ST", "longitude": -87.68911, "latitude": 41.88963 },
	{ "name": "N CAMPBELL AVE & W HURON ST", "longitude": -87.68924, "latitude": 41.89391 },
	{
		"name": "N CAMPBELL AVE & W HUTCHINSON ST",
		"longitude": -87.69172,
		"latitude": 41.95856
	},
	{ "name": "N CAMPBELL AVE & W IOWA ST", "longitude": -87.68935, "latitude": 41.89753 },
	{
		"name": "N CAMPBELL AVE & W IRVING PARK RD",
		"longitude": -87.69087,
		"latitude": 41.954
	},
	{ "name": "N CAMPBELL AVE & W JARVIS AVE", "longitude": -87.69257, "latitude": 42.01586 },
	{ "name": "N CAMPBELL AVE & W LAKE ST", "longitude": -87.68899, "latitude": 41.88454 },
	{
		"name": "N CAMPBELL AVE & W LAWRENCE AVE",
		"longitude": -87.69135,
		"latitude": 41.96859
	},
	{
		"name": "N CAMPBELL AVE & W LE MOYNE ST",
		"longitude": -87.68963,
		"latitude": 41.90847
	},
	{ "name": "N CAMPBELL AVE & W LELAND AVE", "longitude": -87.6913, "latitude": 41.96676 },
	{ "name": "N CAMPBELL AVE & W LOGAN BLVD", "longitude": -87.69022, "latitude": 41.92851 },
	{ "name": "N CAMPBELL AVE & W LUNT AVE", "longitude": -87.69257, "latitude": 42.00861 },
	{ "name": "N CAMPBELL AVE & W LYNDALE ST", "longitude": -87.68932, "latitude": 41.92246 },
	{ "name": "N CAMPBELL AVE & W MADISON ST", "longitude": -87.68849, "latitude": 41.88113 },
	{
		"name": "N CAMPBELL AVE & W MAYPOLE AVE",
		"longitude": -87.68855,
		"latitude": 41.88376
	},
	{ "name": "N CAMPBELL AVE & W MCLEAN AVE", "longitude": -87.6892, "latitude": 41.91858 },
	{ "name": "N CAMPBELL AVE & W MEDILL AVE", "longitude": -87.68937, "latitude": 41.92406 },
	{ "name": "N CAMPBELL AVE & W MELROSE ST", "longitude": -87.69063, "latitude": 41.94072 },
	{ "name": "N CAMPBELL AVE & W MOFFAT ST", "longitude": -87.68978, "latitude": 41.91483 },
	{
		"name": "N CAMPBELL AVE & W MONTROSE AVE",
		"longitude": -87.69113,
		"latitude": 41.9613
	},
	{ "name": "N CAMPBELL AVE & W MORSE AVE", "longitude": -87.69254, "latitude": 42.00679 },
	{ "name": "N CAMPBELL AVE & W NORTH AVE", "longitude": -87.68967, "latitude": 41.91029 },
	{
		"name": "N CAMPBELL AVE & W NORTH SHORE AVE",
		"longitude": -87.69246,
		"latitude": 42.00315
	},
	{ "name": "N CAMPBELL AVE & W OHIO ST", "longitude": -87.68919, "latitude": 41.89209 },
	{ "name": "N CAMPBELL AVE & W PALMER ST", "longitude": -87.68929, "latitude": 41.92164 },
	{
		"name": "N CAMPBELL AVE & W PATTERSON AVE",
		"longitude": -87.69071,
		"latitude": 41.94761
	},
	{
		"name": "N CAMPBELL AVE & W PENSACOLA AVE",
		"longitude": -87.69178,
		"latitude": 41.96038
	},
	{
		"name": "N CAMPBELL AVE & W PETERSON AVE",
		"longitude": -87.6921,
		"latitude": 41.99048
	},
	{
		"name": "N CAMPBELL AVE & W POTOMAC AVE",
		"longitude": -87.68954,
		"latitude": 41.90482
	},
	{ "name": "N CAMPBELL AVE & W PRATT BLVD", "longitude": -87.69251, "latitude": 42.00499 },
	{ "name": "N CAMPBELL AVE & W RICE ST", "longitude": -87.68933, "latitude": 41.89663 },
	{
		"name": "N CAMPBELL AVE & W ROSEMONT AVE",
		"longitude": -87.69227,
		"latitude": 41.99588
	},
	{
		"name": "N CAMPBELL AVE & W SCHUBERT AVE",
		"longitude": -87.69026,
		"latitude": 41.93034
	},
	{
		"name": "N CAMPBELL AVE & W SHAKESPEARE AVE",
		"longitude": -87.68927,
		"latitude": 41.9208
	},
	{
		"name": "N CAMPBELL AVE & W SHERWIN AVE",
		"longitude": -87.69258,
		"latitude": 42.01498
	},
	{
		"name": "N CAMPBELL AVE & W SUNNYSIDE AVE",
		"longitude": -87.69118,
		"latitude": 41.96312
	},
	{ "name": "N CAMPBELL AVE & W SUPERIOR ST", "longitude": -87.68928, "latitude": 41.8948 },
	{ "name": "N CAMPBELL AVE & W THOMAS ST", "longitude": -87.68944, "latitude": 41.90118 },
	{
		"name": "N CAMPBELL AVE & W THORNDALE AVE",
		"longitude": -87.69204,
		"latitude": 41.98862
	},
	{
		"name": "N CAMPBELL AVE & W WABANSIA AVE",
		"longitude": -87.68971,
		"latitude": 41.91211
	},
	{ "name": "N CAMPBELL AVE & W WALTON ST", "longitude": -87.68937, "latitude": 41.89844 },
	{ "name": "N CAMPBELL AVE & W WARNER AVE", "longitude": -87.69099, "latitude": 41.95674 },
	{
		"name": "N CAMPBELL AVE & W WARREN BLVD",
		"longitude": -87.68851,
		"latitude": 41.88207
	},
	{
		"name": "N CAMPBELL AVE & W WASHINGTON BLVD",
		"longitude": -87.68853,
		"latitude": 41.88299
	},
	{
		"name": "N CAMPBELL AVE & W WAVELAND AVE",
		"longitude": -87.69073,
		"latitude": 41.94852
	},
	{
		"name": "N CAMPBELL AVE & W WELLINGTON AVE",
		"longitude": -87.69044,
		"latitude": 41.93578
	},
	{ "name": "N CAMPBELL AVE & W WILSON AVE", "longitude": -87.69124, "latitude": 41.96484 },
	{ "name": "N CANAL ST & N CLINTON ST", "longitude": -87.64055, "latitude": 41.88946 },
	{ "name": "N CANAL ST & W FULTON ST", "longitude": -87.63989, "latitude": 41.88682 },
	{ "name": "N CANAL ST & W KINZIE ST", "longitude": -87.64024, "latitude": 41.88905 },
	{ "name": "N CANAL ST & W LAKE ST", "longitude": -87.63985, "latitude": 41.88572 },
	{ "name": "N CANAL ST & W MADISON ST", "longitude": -87.63968, "latitude": 41.88188 },
	{ "name": "N CANAL ST & W RANDOLPH ST", "longitude": -87.6398, "latitude": 41.88444 },
	{
		"name": "N CANAL ST & W WASHINGTON BLVD",
		"longitude": -87.63974,
		"latitude": 41.88318
	},
	{ "name": "N CANFIELD AVE & N OZANAM AVE", "longitude": -87.82235, "latitude": 41.99175 },
	{ "name": "N CANFIELD AVE & W ARDMORE AVE", "longitude": -87.82315, "latitude": 41.9858 },
	{
		"name": "N CANFIELD AVE & W BALMORAL AVE",
		"longitude": -87.82421,
		"latitude": 41.97773
	},
	{ "name": "N CANFIELD AVE & W BERWYN AVE", "longitude": -87.82449, "latitude": 41.97557 },
	{
		"name": "N CANFIELD AVE & W BRYN MAWR AVE",
		"longitude": -87.82374,
		"latitude": 41.98137
	},
	{
		"name": "N CANFIELD AVE & W CATALPA AVE",
		"longitude": -87.82397,
		"latitude": 41.97955
	},
	{ "name": "N CANFIELD AVE & W FARRAGUT AVE", "longitude": -87.82456, "latitude": 41.975 },
	{ "name": "N CANFIELD AVE & W FOSTER AVE", "longitude": -87.82469, "latitude": 41.97409 },
	{
		"name": "N CANFIELD AVE & W GLENLAKE AVE",
		"longitude": -87.82256,
		"latitude": 41.99022
	},
	{ "name": "N CANFIELD AVE & W GREGORY ST", "longitude": -87.82386, "latitude": 41.98046 },
	{ "name": "N CANFIELD AVE & W HIGGINS RD", "longitude": -87.82333, "latitude": 41.98451 },
	{
		"name": "N CANFIELD AVE & W HORTENSE AVE",
		"longitude": -87.82167,
		"latitude": 41.99589
	},
	{ "name": "N CANFIELD AVE & W MEMORY LN", "longitude": -87.82674, "latitude": 41.97352 },
	{ "name": "N CANFIELD AVE & W OLIVE AVE", "longitude": -87.82362, "latitude": 41.98227 },
	{
		"name": "N CANFIELD AVE & W PALATINE AVE",
		"longitude": -87.82185,
		"latitude": 41.99498
	},
	{
		"name": "N CANFIELD AVE & W RASCHER AVE",
		"longitude": -87.82409,
		"latitude": 41.97864
	},
	{
		"name": "N CANFIELD AVE & W ROSEDALE AVE",
		"longitude": -87.82292,
		"latitude": 41.98755
	},
	{
		"name": "N CANFIELD AVE & W SEMINOLE ST",
		"longitude": -87.82351,
		"latitude": 41.98319
	},
	{ "name": "N CANFIELD AVE & W SERBIAN RD", "longitude": -87.82344, "latitude": 41.98366 },
	{
		"name": "N CANFIELD AVE & W SUMMERDALE AVE",
		"longitude": -87.82433,
		"latitude": 41.97682
	},
	{
		"name": "N CANFIELD AVE & W TALCOTT AVE",
		"longitude": -87.82213,
		"latitude": 41.99333
	},
	{
		"name": "N CANFIELD AVE & W THORNDALE AVE",
		"longitude": -87.82304,
		"latitude": 41.98667
	},
	{
		"name": "N CANFIELD AVE & W VICTORIA ST",
		"longitude": -87.82324,
		"latitude": 41.98512
	},
	{ "name": "N CANNON DR & N LAKE SHORE DR", "longitude": -87.63713, "latitude": 41.93111 },
	{
		"name": "N CANNON DR & N LSD LA SALLE ST XR",
		"longitude": -87.62747,
		"latitude": 41.9144
	},
	{
		"name": "N CANNON DR & W FULLERTON PKWY",
		"longitude": -87.63363,
		"latitude": 41.92575
	},
	{ "name": "N CANNON DR & W LA SALLE DR", "longitude": -87.62995, "latitude": 41.91292 },
	{
		"name": "N CARPENTER ST & N MILWAUKEE AVE",
		"longitude": -87.65357,
		"latitude": 41.89506
	},
	{ "name": "N CARPENTER ST & W ANCONA ST", "longitude": -87.65354, "latitude": 41.89401 },
	{
		"name": "N CARPENTER ST & W CARROLL AVE",
		"longitude": -87.65337,
		"latitude": 41.88775
	},
	{
		"name": "N CARPENTER ST & W CHICAGO AVE",
		"longitude": -87.65361,
		"latitude": 41.89629
	},
	{ "name": "N CARPENTER ST & W FRY ST", "longitude": -87.65366, "latitude": 41.89736 },
	{
		"name": "N CARPENTER ST & W FULTON MARKET",
		"longitude": -87.65334,
		"latitude": 41.88672
	},
	{ "name": "N CARPENTER ST & W GRAND AVE", "longitude": -87.65346, "latitude": 41.89112 },
	{ "name": "N CARPENTER ST & W HUBBARD ST", "longitude": -87.65343, "latitude": 41.89003 },
	{ "name": "N CARPENTER ST & W HURON ST", "longitude": -87.65355, "latitude": 41.89439 },
	{ "name": "N CARPENTER ST & W KINZIE ST", "longitude": -87.6534, "latitude": 41.88898 },
	{ "name": "N CARPENTER ST & W LAKE ST", "longitude": -87.65331, "latitude": 41.88556 },
	{ "name": "N CARPENTER ST & W MADISON ST", "longitude": -87.65319, "latitude": 41.88168 },
	{
		"name": "N CARPENTER ST & W RANDOLPH ST",
		"longitude": -87.65327,
		"latitude": 41.88419
	},
	{
		"name": "N CARPENTER ST & W WASHINGTON BLVD",
		"longitude": -87.65323,
		"latitude": 41.88304
	},
	{
		"name": "N CENTRAL AVE & N DOWAGIAC AVE",
		"longitude": -87.76196,
		"latitude": 42.00264
	},
	{ "name": "N CENTRAL AVE & N ELSTON AVE", "longitude": -87.7683, "latitude": 41.985 },
	{
		"name": "N CENTRAL AVE & N HIAWATHA AVE",
		"longitude": -87.76291,
		"latitude": 41.99984
	},
	{ "name": "N CENTRAL AVE & N IONIA AVE", "longitude": -87.76227, "latitude": 42.00169 },
	{
		"name": "N CENTRAL AVE & N KENNEDY CENTRAL AV ER",
		"longitude": -87.76853,
		"latitude": 41.97313
	},
	{ "name": "N CENTRAL AVE & N LEHIGH AVE", "longitude": -87.7646, "latitude": 41.99512 },
	{ "name": "N CENTRAL AVE & N LEONARD AVE", "longitude": -87.76824, "latitude": 41.9872 },
	{ "name": "N CENTRAL AVE & N LEOTI AVE", "longitude": -87.76355, "latitude": 41.998 },
	{ "name": "N CENTRAL AVE & N LOUISE AVE", "longitude": -87.76489, "latitude": 41.99434 },
	{ "name": "N CENTRAL AVE & N LOVEJOY AVE", "longitude": -87.76843, "latitude": 41.97814 },
	{ "name": "N CENTRAL AVE & N MANTON AVE", "longitude": -87.76827, "latitude": 41.98609 },
	{
		"name": "N CENTRAL AVE & N NORTHWEST HWY",
		"longitude": -87.76849,
		"latitude": 41.97522
	},
	{
		"name": "N CENTRAL AVE & N PRESCOTT AVE",
		"longitude": -87.76557,
		"latitude": 41.99251
	},
	{
		"name": "N CENTRAL AVE & N SAUGANASH AVE",
		"longitude": -87.76185,
		"latitude": 42.0037
	},
	{ "name": "N CENTRAL AVE & N SIOUX AVE", "longitude": -87.76259, "latitude": 42.00078 },
	{ "name": "N CENTRAL AVE & N TAHOMA AVE", "longitude": -87.76323, "latitude": 41.99892 },
	{ "name": "N CENTRAL AVE & W ADDISON ST", "longitude": -87.76676, "latitude": 41.94588 },
	{ "name": "N CENTRAL AVE & W AGATITE AVE", "longitude": -87.76727, "latitude": 41.9614 },
	{ "name": "N CENTRAL AVE & W AINSLIE ST", "longitude": -87.76754, "latitude": 41.9696 },
	{ "name": "N CENTRAL AVE & W ALTGELD ST", "longitude": -87.76605, "latitude": 41.9258 },
	{ "name": "N CENTRAL AVE & W ARDMORE AVE", "longitude": -87.76828, "latitude": 41.98585 },
	{ "name": "N CENTRAL AVE & W AUGUSTA BLVD", "longitude": -87.76552, "latitude": 41.8985 },
	{
		"name": "N CENTRAL AVE & W BALMORAL AVE",
		"longitude": -87.76841,
		"latitude": 41.97931
	},
	{ "name": "N CENTRAL AVE & W BARRY AVE", "longitude": -87.76643, "latitude": 41.93675 },
	{ "name": "N CENTRAL AVE & W BELDEN AVE", "longitude": -87.76592, "latitude": 41.92216 },
	{
		"name": "N CENTRAL AVE & W BELLE PLAINE AVE",
		"longitude": -87.76706,
		"latitude": 41.95501
	},
	{ "name": "N CENTRAL AVE & W BELMONT AVE", "longitude": -87.7665, "latitude": 41.93857 },
	{
		"name": "N CENTRAL AVE & W BERENICE AVE",
		"longitude": -87.76691,
		"latitude": 41.95043
	},
	{ "name": "N CENTRAL AVE & W BERTEAU AVE", "longitude": -87.76712, "latitude": 41.95683 },
	{ "name": "N CENTRAL AVE & W BERWYN AVE", "longitude": -87.76845, "latitude": 41.97738 },
	{
		"name": "N CENTRAL AVE & W BLOOMINGDALE AVE",
		"longitude": -87.76563,
		"latitude": 41.91303
	},
	{
		"name": "N CENTRAL AVE & W BRYN MAWR AVE",
		"longitude": -87.76834,
		"latitude": 41.98294
	},
	{ "name": "N CENTRAL AVE & W BYRON ST", "longitude": -87.76694, "latitude": 41.95133 },
	{ "name": "N CENTRAL AVE & W CATALPA AVE", "longitude": -87.76838, "latitude": 41.98112 },
	{ "name": "N CENTRAL AVE & W CHICAGO AVE", "longitude": -87.76539, "latitude": 41.89485 },
	{ "name": "N CENTRAL AVE & W CORCORAN PL", "longitude": -87.76511, "latitude": 41.88722 },
	{
		"name": "N CENTRAL AVE & W CORNELIA AVE",
		"longitude": -87.76669,
		"latitude": 41.94405
	},
	{ "name": "N CENTRAL AVE & W CORTEZ ST", "longitude": -87.76556, "latitude": 41.89941 },
	{ "name": "N CENTRAL AVE & W CORTLAND ST", "longitude": -87.76554, "latitude": 41.91436 },
	{ "name": "N CENTRAL AVE & W CRYSTAL ST", "longitude": -87.76569, "latitude": 41.90305 },
	{ "name": "N CENTRAL AVE & W CULLOM AVE", "longitude": -87.76718, "latitude": 41.95866 },
	{ "name": "N CENTRAL AVE & W DAKIN ST", "longitude": -87.76697, "latitude": 41.95224 },
	{ "name": "N CENTRAL AVE & W DEVON AVE", "longitude": -87.76379, "latitude": 41.99733 },
	{
		"name": "N CENTRAL AVE & W DIVERSEY AVE",
		"longitude": -87.76625,
		"latitude": 41.93128
	},
	{ "name": "N CENTRAL AVE & W DIVISION ST", "longitude": -87.76565, "latitude": 41.90214 },
	{ "name": "N CENTRAL AVE & W DRUMMOND PL", "longitude": -87.76614, "latitude": 41.92854 },
	{
		"name": "N CENTRAL AVE & W EASTWOOD AVE",
		"longitude": -87.76739,
		"latitude": 41.96504
	},
	{ "name": "N CENTRAL AVE & W EDDY ST", "longitude": -87.76672, "latitude": 41.94496 },
	{
		"name": "N CENTRAL AVE & W FARRAGUT AVE",
		"longitude": -87.76848,
		"latitude": 41.97658
	},
	{ "name": "N CENTRAL AVE & W FOSTER AVE", "longitude": -87.76848, "latitude": 41.97568 },
	{
		"name": "N CENTRAL AVE & W FULLERTON AVE",
		"longitude": -87.76599,
		"latitude": 41.92398
	},
	{ "name": "N CENTRAL AVE & W FULTON ST", "longitude": -87.76506, "latitude": 41.88572 },
	{ "name": "N CENTRAL AVE & W GEORGE ST", "longitude": -87.76631, "latitude": 41.9331 },
	{ "name": "N CENTRAL AVE & W GIDDINGS ST", "longitude": -87.76745, "latitude": 41.96687 },
	{ "name": "N CENTRAL AVE & W GOODMAN ST", "longitude": -87.76855, "latitude": 41.9717 },
	{ "name": "N CENTRAL AVE & W GRACE ST", "longitude": -87.76688, "latitude": 41.94953 },
	{ "name": "N CENTRAL AVE & W GRAND AVE", "longitude": -87.76541, "latitude": 41.91869 },
	{ "name": "N CENTRAL AVE & W GUNNISON ST", "longitude": -87.7675, "latitude": 41.96869 },
	{ "name": "N CENTRAL AVE & W HADDON AVE", "longitude": -87.76562, "latitude": 41.90123 },
	{ "name": "N CENTRAL AVE & W HENDERSON ST", "longitude": -87.7666, "latitude": 41.94131 },
	{ "name": "N CENTRAL AVE & W HIGGINS AVE", "longitude": -87.76756, "latitude": 41.97033 },
	{ "name": "N CENTRAL AVE & W HIRSCH ST", "longitude": -87.76578, "latitude": 41.90576 },
	{ "name": "N CENTRAL AVE & W HURON ST", "longitude": -87.76532, "latitude": 41.89293 },
	{
		"name": "N CENTRAL AVE & W HUTCHINSON ST",
		"longitude": -87.76715,
		"latitude": 41.95775
	},
	{ "name": "N CENTRAL AVE & W IOWA ST", "longitude": -87.76546, "latitude": 41.89667 },
	{
		"name": "N CENTRAL AVE & W IRVING PARK RD",
		"longitude": -87.767,
		"latitude": 41.95318
	},
	{
		"name": "N CENTRAL AVE & W KAMERLING AVE",
		"longitude": -87.76575,
		"latitude": 41.90485
	},
	{ "name": "N CENTRAL AVE & W LAKE ST", "longitude": -87.76512, "latitude": 41.88773 },
	{
		"name": "N CENTRAL AVE & W LAWRENCE AVE",
		"longitude": -87.76748,
		"latitude": 41.96778
	},
	{ "name": "N CENTRAL AVE & W LE MOYNE ST", "longitude": -87.76585, "latitude": 41.90757 },
	{ "name": "N CENTRAL AVE & W LELAND AVE", "longitude": -87.76742, "latitude": 41.96596 },
	{ "name": "N CENTRAL AVE & W MADISON ST", "longitude": -87.76486, "latitude": 41.88025 },
	{ "name": "N CENTRAL AVE & W MELROSE ST", "longitude": -87.76653, "latitude": 41.93949 },
	{
		"name": "N CENTRAL AVE & W MONTROSE AVE",
		"longitude": -87.76724,
		"latitude": 41.96048
	},
	{ "name": "N CENTRAL AVE & W MORSE AVE", "longitude": -87.76174, "latitude": 42.00638 },
	{ "name": "N CENTRAL AVE & W NEWPORT AVE", "longitude": -87.76666, "latitude": 41.94314 },